name,diameter,center_lon,center_lat
Sinus Lunicus,119.175,358.1488700609,32.3640548028
Marco Polo P,28.0621,359.6815170251,16.96734857
Vallis Krishna,2.89613,11.2632114952,24.5022983732
Rima Sung-Mei,3.87576,11.2842256661,24.5878074817
Rima Siegfried,13.9583,103.0067108585,-25.8219984821
Rimae Sosigenes,130,18.7179066883,8.0802983871
Montanari,77.0541,339.2449309765,-45.8282203518
Zeeman,186.556,224.9387035242,-75.068215048
Bürg,41.0423,28.2081339315,45.0733907907
Carlos,4.66924,2.2831743437,24.9074654071
C. Herschel,13.7014,328.7050503429,34.4815267815
Guericke S,10.1894,346.6010184904,-10.3568914635
Calippus,34.0326,10.717504486,38.9248909157
Carol,6.25379,122.3684778874,8.4792456397
Daniell,28.204,31.1644792168,35.4201095909
De Vico,22.1343,299.6811411328,-19.7114121858
Dorsa Harker,213.143,63.6519573591,13.789515951
Dorsa Cato,128.636,47.700502644,0.213115364
Eudoxus,70.1567,16.2256511503,44.265566695
Ewen,2.60314,121.4604252511,7.6903406311
Fedorov,6.07683,322.9537570126,28.2265494183
Florensky,69.0305,131.8507734895,25.4516726584
Franklin,55.9204,47.639682933,38.728794826
Freud,2.84585,307.6014995046,25.7931719446
Gagarin,261.83,149.3540700365,-19.6576284652
Harding,22.5737,288.3438289722,43.5400636805
Hermite,108.638,266.6848222316,86.165944128
Harkhebi,337.136,98.7448561329,40.8704800952
Heron (Hero),28.1012,119.8770954699,0.6525479722
Ivan,3.84405,316.7432427709,26.856505399
Hertzsprung,536.371,231.3439119241,1.3650633011
Hind,28.5013,7.3058113661,-7.9179825486
Ina,2.98058,5.3042965638,18.6589568658
Isis,0.609748,27.4819647827,18.9530844648
Joliot,172.794,93.3896046977,25.7883220392
Kearons,27.9935,247.0815614072,-11.5876764167
Karima,3.0496,102.9819782258,-25.9325817402
Kira,6.8067,132.8316449573,-17.7072949605
Kirch,11.7067,354.3777583671,39.2651827678
Lacus Spei,76.671,65.203512282,43.460979859
Lacchini,57.9451,252.170016962,41.2944433781
Kundt,10.3081,348.4324821308,-11.5669716934
Mach,174.966,210.7635255841,18.127930562
Lacus Bonitatis,122.103,44.315815274,23.183011327
Lorentz,378.42,262.8130226663,34.5886144183
Lacus Gaudii,88.5353,12.27449044,16.331916397
Lacus Hiemalis,48.0443,13.974398124,15.007963024
Lacus Lenitatis,78.2512,12.054861162,14.316479367
Lacus Luxuriae,50.6124,175.5041587957,19.4083015111
Le Verrier,20.5223,339.3902015337,40.3266230697
Mons Ampère,29.9587,356.2904779806,19.3238872457
Mons Dilip,1.36893,120.8665793392,5.5826189379
Nansen,116.9,95.3805314686,81.1707581003
MacMillan,6.87987,352.1534117593,24.2007949733
Lundmark,103.444,152.5579190833,-38.8699292139
Mandel'shtam,181.892,162.3877063095,5.6976808167
Mare Australe,996.84,91.9853637186,-47.7705292652
Mare Spumans,143.132,65.303272672,1.302304884
Marth,6.53708,330.6495166117,-31.1566510754
Mons Gruithuisen Delta,27.2429,320.4101409387,36.0678173225
Mons Gruithuisen Gamma,19.6525,319.2787151515,36.5584837508
Mons Usov,13.2267,63.2636307814,11.9080453724
Mons Vinogradov,28.734,327.4810185296,22.3496690001
Montes Haemus,384.663,12.0307813886,17.1071474717
Montes Harbinger,92.6962,318.7098637308,26.8923335204
Montes Pyrenaeus,251.333,41.5097022416,-14.0479843834
Poincaré,345.988,163.9945337589,-56.8622857991
Palus Somni,163.455,44.7246577724,13.6880661938
Promontorium Deville,16.5554,1.1352308536,43.3087280302
Promontorium Agassiz,18.8363,1.7686609496,42.3979033651
Stella,0.417311,29.7578548772,19.9124076219
Reiner Gamma,73.441,301.0416633252,7.3852653848
Sinus Aestuum,316.499,351.6604489721,12.097616798
Schickard,212.184,304.8948266949,-44.379334678
Sinus Roris,195.042,309.1412464975,50.2612815878
Sinus Successus,126.651,58.5197628778,1.1242121854
Apollonius L,10.1233,54.5668174052,6.4710439224
Taizo,8.18537,2.19605494,24.7024079188
Tikhomirov,86.4277,161.3329391321,24.1988484814
Van de Graaff,240.467,172.0079718645,-27.0413455272
Vertregt,172.759,171.1202751687,-19.2999044774
Adams B,31.328,65.700673643,-31.5429446979
Al-Khwarizmi G,102.832,107.3456638714,6.7559255309
Alden E,26.3692,112.8051745179,-23.4177752353
Alexander K,3.9548,19.3496529235,40.5213628293
Aliacensis K,5.64688,6.2588972214,-31.4289276895
Hayford P,20.9046,182.2629682933,11.0094272293
Fourier P,9.61917,304.9269246847,-31.1156220578
Bridgman C,40.4358,140.4018251511,46.5680960209
Maskelyne Y,4.27393,28.160819383,1.7294583255
Avicenna E,25.6444,268.7494864209,40.1947408781
Barbier K,13.2483,159.2015020524,-26.288275738
Barocius C,35.8403,17.4775995689,-43.1070070979
Bayer S,15.4356,323.552856243,-52.3256084395
Birkhoff M,25.3292,214.9376672705,54.5016432885
Bolyai W,53.0283,124.4160667105,-32.0476191786
Boscovich P,64.8228,10.3088903093,11.4687888014
Briggs A,25.1331,286.2210009519,27.1248312555
Brown E,23.1873,342.3711297033,-46.8588933847
Buch E,8.31281,16.5025369482,-38.9765187055
Bullialdus G,3.39559,336.2994186582,-23.2709045767
Bullialdus H,4.3762,340.6397482606,-22.7531824055
Bunsen B,21.4867,271.9703589837,44.109237998
Buys-Ballot H,24.0331,179.6066147139,19.526806164
Byrgius S,45.9357,298.2259993418,-26.0622390655
Calippus A,15.7166,7.870557194,37.059990641
Calippus C,37.6947,9.1572982001,39.4345846663
Cannon E,25.8671,78.9943238333,19.2673616347
Capuanus P,68.5186,331.4083067308,-35.4432194685
Cassini A,16.7569,4.7756463841,40.513805173
Cassini W,5.46221,4.254066547,42.3481663072
Clairaut F,31.1815,14.3535646745,-45.7775276115
Condorcet E,8.03069,68.1637590822,11.3498669846
Daguerre K,5.43518,35.7828668775,-12.2453005908
de Gasparis A,38.4081,308.6269179741,-26.7374919431
De Vico A,34.082,296.3835833036,-18.7486984031
Delambre F,4.24528,19.2476826737,-1.06276479
Douglass X,24.1861,235.9132397491,38.0533452065
Drebbel P,4.87677,308.06542062,-39.7237703223
Dubyago X,8.40876,73.0308039842,6.4974527029
Egede E,3.61503,10.4322308405,49.7375046063
Evershed S,47.2388,197.1616842188,34.5039045418
Eratosthenes Z,0.571071,345.9003847002,13.7492042457
Flammarion Y,2.3012,356.8084855574,-3.7329641794
Flamsteed X,2.82469,312.6002650029,-2.2975818357
Foster H,27.3738,220.4245824082,23.0178784824
Fourier K,13.1413,305.6481785675,-30.0388526626
Hevelius E,8.80809,294.2175981987,2.9582230444
Fracastorius W,6.64621,35.6866275804,-22.6951721953
Franklin H,5.15161,43.7447159423,37.1201879845
Fraunhofer A,29.172,61.6102257753,-39.5806082505
Gauss A,20.704,82.767115141,36.5382877263
Furnerius V,59.1807,65.4990169048,-35.7151132754
Furnerius F,52.0555,64.1219243353,-36.1003874683
Galilaei G,0.808777,292.7441468744,12.6525278993
Galilaei S,2.72159,295.2289101851,15.4618520033
Ganskiy (Hansky) F,8.87558,98.9882470512,-9.6580376604
Gassendi L,5.32024,318.2131383066,-20.3928255086
Hermann L,2.81367,300.7706093674,2.4353383585
Gaudibert C,8.03994,37.7979149441,-11.56898153
Gay-Lussac H,5.01126,336.6690858344,13.411959798
Geminus G,14.837,48.5746538485,30.7968651026
Gerard Q Outer,192.481,275.4529069286,46.5122222299
Guericke J,6.99329,346.5748839735,-10.6186190464
Halley K,4.4501,5.8184060543,-8.5678524829
Hercules E,9.98423,38.699574342,45.7993928343
Hell Q,3.74917,355.5312163132,-32.9965710231
Herigonius G,3.16677,327.5416840393,-15.2741981588
Herodotus E,36.5505,308.4760504174,29.3492757129
Herodotus N,4.3245,309.8836089095,23.6445105629
Jules Verne Y,22.016,146.359484986,-31.4463975147
Herschel J,4.84728,355.7187104877,-6.4216878059
Horrebow G,7.06556,318.1587855071,59.8223887533
Isidorus V,3.85454,30.8148120843,-8.8843889796
Hyginus B,4.84677,5.0712717495,7.6088647236
Lacroix E,20.3344,296.9728722145,-39.974541302
Hyginus F,3.80882,8.60625417,7.9905260388
Hyginus H,3.42495,7.009931292,5.9424830899
Ingalls Z,25.8459,206.5259311354,30.0928920513
Janssen R,22.9008,38.7000466113,-48.2800504323
Jacobi Q,3.9242,14.0261247663,-55.8478452666
Jansen G,5.56523,26.0201846039,9.3007436036
Jansky D,23.0246,91.2533083692,9.556362683
Lacroix R,19.1483,299.7798956856,-34.4351066053
Janssen Q,4.94468,39.364244154,-46.3495158712
Kant N,9.05227,19.7147900645,-9.9149118577
Rheita E,67.7224,48.9171437552,-34.2396529306
Kapteyn Z,6.65203,72.5641774713,-11.2059171041
Kästner G,95.6644,79.3471483802,-3.6773632675
Kelvin A,7.36015,328.4261103336,-27.4868033381
Rocca Q,58.5093,290.861555156,-15.2928306832
Kirch F,4.05979,353.9519986195,38.0050592909
Kinau P,4.95279,17.3602427535,-61.4243780667
Krusenstern A,4.89252,5.8013832897,-26.9785999723
Kugler U,35.3959,101.7394392518,-53.5911103849
Lacroix G,48.7686,300.7508284161,-36.6163585443
Lacroix J,20.1264,300.5734623022,-38.373335868
Lade X,2.93574,11.0379825657,-1.7174230158
Lansberg B,8.99909,331.8605939424,-2.4939003579
Lansberg L,4.10274,333.5936930058,-3.5559306254
Lavoisier A,28.5149,286.7360890383,36.9726109891
Lavoisier L,6.41967,285.0241923484,39.7363517971
Lichtenberg H,4.1827,301.0972283335,31.5158086285
Lick G,4.77871,50.9205859705,10.0738885925
Lippershey T,4.93473,348.8674529228,-25.3013409894
Longomontanus E,6.16657,341.8939121478,-51.3460988068
Lubbock M,22.1567,38.6927781584,-0.4050941679
Maskelyne J,3.68796,32.6290228069,3.1351415511
Lyell C,4.14601,39.3910914462,15.1418606943
Maclear A,4.11069,18.0020369673,11.3041764727
Seeliger T,3.32102,4.3069624666,-2.2029839925
Maginus Q,9.23811,357.6726382555,-50.8517101997
Marco Polo G,4.42309,358.0653187831,16.7204618965
Marius J,2.98301,313.0938135974,10.4512599099
Marius Y,2.52475,309.2261864407,9.7798711835
Marth K,3.02196,331.2276439206,-29.9609176829
Maskelyne B,8.34478,28.964683026,1.9701931173
Maskelyne G,5.84513,26.6971987957,2.298794813
Maupertuis B,6.07489,333.2001344375,51.3714554392
Maurolycus P,3.9359,12.6940418856,-38.1273441336
Maury K,5.20225,41.0700065413,39.4738180148
Mercator E,5.32724,333.1473080776,-30.1024633205
Mercurius D,69.4784,69.0021154239,46.1295999404
Short B,89.8391,354.8276288458,-75.8926090405
Milichius A,8.2284,327.9335165708,9.2544153462
Miller E,5.8693,2.7540592294,-38.9272477457
Mösting L,3.01703,356.5688714615,-0.6898842196
Mutus J,7.15203,23.2898817769,-62.8117459604
Neander M,8.60276,37.662051228,-34.8516171904
Nearch M,7.50939,35.1464682071,-58.6120744271
Lev,0.06,62.2007446289,12.6905822754
Nonius F,6.98943,3.7357219155,-35.9272309792
Opelt E,7.38491,342.0901190978,-17.0427758782
Orontius B,8.74648,356.8374389243,-39.9647022416
Parry L,6.31872,345.3014101717,-6.3168979041
Piazzi C,28.0401,297.2474236963,-37.1535381156
Piazzi Smyth W,3.00464,358.1354481036,42.250764498
Pickering C,3.32135,6.1526477036,-1.5415413231
Plinius A,3.45442,24.1680583814,12.9867186602
Pons N,5.75519,22.9205065405,-25.9523434792
Ptolemaeus L,3.17594,355.9888374,-8.8489339224
Ptolemaeus Y,5.97073,0.7037556589,-9.3662244713
Puiseux B,3.37459,321.0254583068,-25.7040715462
Pytheas F,3.8992,340.8574634075,16.5502914558
Rabbi Levi N,8.85588,23.5872132624,-36.5118244849
Réaumur C,4.26911,0.2059506914,-3.4964324843
?afa?ík A,21.2386,176.975636205,12.5025887484
Reiner M,2.99672,303.7536847433,8.6223336061
Reiner S,3.38583,309.1636690585,2.2596707684
Rocca M,44.1342,289.1134902349,-14.5700173836
Römer W,6.06865,40.4108425762,26.4394529047
Saunder T,4.91115,10.3888806321,-4.0697382727
Rümker E,6.78988,302.861143671,38.6377420908
Sabine C,2.83579,22.9221536854,1.0218941576
Santbech D,7.43742,45.1364021088,-21.1399672992
Santbech K,9.29386,43.1190594046,-19.2257414427
Santbech V,6.81013,39.3304355275,-24.6788943087
Saunder S,3.16956,9.7430421759,-2.3777431813
Saussure B,3.95448,355.9819952285,-42.2687522705
Scheiner S,6.77314,334.6658718833,-58.3860767748
Schickard L,8.58828,300.1961139832,-44.1203097701
Secchi K,6.00565,45.5002187418,-0.1742858488
Wessex Cleft,3.4926,30.891545916,20.3430115282
Plaskett,114.342,176.7146922843,81.6332308176
Tacitus M,5.84737,21.4753103757,-13.9682606089
Rozhdestvenskiy,181.151,202.1076391491,84.9943120114
Von Kármán,186.348,176.2451158895,-44.4505365711
Sharp-Apollo,0.014,336.5690466002,-3.0202102714
Webb N,5.86248,63.6240533935,-0.3203457891
W. Bond,170.532,3.5194754998,65.4051547355
Catena Brigitte,7.6503,27.4929634394,18.4953593224
Middle Crescent,0.363,336.5658877603,-3.0033874539
Surveyor,0.205,336.5764602685,-3.0088806016
Triplet,0.3219,342.5334545218,-3.6478042563
Cone,0.333,342.566413786,-3.6248016347
Dorsum Oppel,297.618,52.086928419,19.313864835
Dorsum Owen,33.4687,11.094288012,25.139362464
Dorsum Scilla,107.52,300.0042429541,32.3442325194
Rima Agatharchides,54.251,331.4356668382,-20.3784248613
Dorsa Smirnov,221.784,25.529441691,26.408200016
Dorsum Thera,7.24504,328.5774769511,24.4028779256
Montes Jura,420.796,323.8889963835,47.4935289398
Montes Secchi,52.466,43.1727590549,2.7171804233
Planitia Descensus,0,295.8456101615,7.1803035896
Rima Archytas,90.1823,2.9985432183,53.6285759137
Vallis Rheita,509.071,51.654037083,-42.5125636198
Dorsa Sorby,76.0256,13.6993065631,18.6475289769
Vallis Schrödinger,301.715,104.8807529238,-66.5184919995
Dorsa Stille,66.3204,341.1455192283,26.9079363719
Dorsum Buckland,369.125,14.2994718047,19.4328953784
Rima Réaumur,30.6643,2.4661855826,-2.8382801589
Dorsum Cushman,85.6515,49.1934647525,1.417099585
Dorsum Gast,64.8697,8.706792268,24.375280595
Dorsa Tetyaev,187.526,64.064031144,20.024959376
Dorsum Cayeux,95.1353,51.220367762,0.762790124
Dorsum Cloos,103.087,90.4099786196,1.1494890413
Rima Carmen,15.0199,29.2979638029,19.9547962406
Dorsum Heim,146.786,330.16648491,32.1960522925
Dorsum Higazy,63.0999,342.53449494,27.931434774
Rima Ariadaeus,247.449,13.4381162072,6.4751806842
Rima Billy,69.8213,311.9593068768,-14.74066485
Rima Messier,74.2178,44.5454455748,-0.7564727187
Rima Zahia,15.2422,329.5443632438,25.0208893668
Vallis Alpes,155.417,3.6313808451,49.2087803039
Vallis Baade,206.789,282.7701729596,-45.5533481692
Vallis Bohr,95.3219,271.1381219159,10.2489440603
Vallis Bouvard,287.924,277.6796150719,-38.4496613529
Vallis Capella,106.28,35.0384716398,-7.3917842698
Vallis Inghirami,145.084,287.4103475479,-43.9470233481
Vallis Palitzsch,110.498,64.6373897789,-26.163498794
Vallis Planck,502.899,126.1558693955,-57.2648914659
Dorsum Bucher,84.6514,320.449678362,30.763348755
Dorsa Barlow,112.575,30.5673324798,14.0439457941
Catena Sylvester,139,276.8822366429,79.9897849395
Mons Agnes,0,5.3404508371,18.6618659862
Catena Abulfeda,209.972,16.7001324151,-16.5911575189
Catena Artamonov,131.215,105.771818802,26.09160868
Rima Birt,54.183,350.718921498,-21.403404288
Tisserand A,24.53,49.475652344,20.3564326581
Catena Davy,52.3361,353.7344243453,-10.9847390608
Catena Dziewulski,80.6594,100.2692088998,18.7756280484
Catena Gregory,148.158,129.8025184963,-0.5918865138
Catena Humboldt,162.288,84.696989256,-21.980935568
Catena Krafft,55.1054,287.7497417454,14.9135542782
Catena Kurchatov,234.913,136.603346789,37.246545224
Catena Leuschner (GDL),200.058,248.6955438565,5.073662985
Catena Littrow,10.2998,29.6113899805,22.2308060554
Catena Lucretius (RNII),232.065,233.554266396,-4.025842906
Catena Mendeleev,125.22,139.2166187894,6.630199159
Catena Michelson (GIRD),450.598,246.418845657,-0.442236826
Catena Pierre,9.43503,328.1416325753,19.7612391656
Catena Taruntius,69.2389,48.7064218419,3.0430592786
Catena Timocharis,48.3693,346.7940170998,29.094924392
Catena Yuri,4.51752,329.6183922132,24.4081442452
Vallis Christel,2.10018,11.0814381551,24.5441037608
Dorsum Arduino,99.7323,323.7347930452,24.7734431061
Dorsum Azara,103.196,19.166419008,26.860561283
Tisserand B,8.71774,51.3740093431,20.6472386063
Tisserand D,5.66654,49.4656395736,21.7564203984
Dorsa Dana,82.3119,89.595195241,2.262317931
Dorsum Nicol,43.7423,22.662427428,18.321718716
Ryder,15.5485,143.2994003987,-43.8747119361
Abel,137.349,85.7762185312,-34.6257003361
Bi Sheng,55.271,148.4586565848,78.3450055443
Dorsa Ewing,261.565,321.6851668337,-11.06100309
Dorsum Niggli,47.7523,307.72209297,29.00561755
Abbot,10.4043,54.743058931,5.5561622635
Abenezra,43.1887,11.890656862,-20.9935637436
Cai Lun,44.8908,113.6638512861,80.1165508663
Abetti,1.59879,27.8157242753,20.1127273643
Zhang Yuzhe,38.0043,222.1794968446,-69.0698603058
Abbe,63.976,174.7749690105,-57.5754823531
Abul Wáfa,54.1787,116.6306444763,0.9625564338
Hanno K,25.3218,76.7422028295,-53.6153233512
Dorsa Geikie,218.352,52.828535391,-4.20572625
Vening Meinesz T,15.6353,159.236501382,-0.2931835636
Maginus P,10.4752,348.1884000908,-50.6984733225
Malyy G,29.2162,107.1077194964,21.7183288225
Sechenov C,17.2772,218.2850846598,-5.1453971848
Sharp M,4.7473,318.5414773788,47.3871897267
Stöfler N,14.1909,6.6063039084,-41.9065516416
Sechenov P,21.084,215.8023153417,-9.7491417453
Segers H,30.2441,128.9205012934,46.5348270533
Ptolemaeus G,9.4151,0.0230173322,-7.1473664708
Sharp U,6.32585,311.3189806985,47.4077331099
Ptolemaeus T,6.5555,359.9891749133,-7.4862403509
Sharp V,6.64211,312.9439741326,46.2346125113
Shayn B,35.7218,173.4866238991,34.4731758834
Taruntius H,8.58648,49.8761673286,0.3271584262
Shayn F,36.8829,175.3927097069,32.9703753492
South D,6.16042,310.8739124474,55.2721236996
South E,8.11097,306.9966702656,56.6950254178
South F,6.51662,305.9085728441,57.1285059313
South H,5.51048,311.8192847204,57.2502069717
South M,5.71517,308.9803312289,55.3142970178
Spallanzani A,6.6543,25.6177824894,-46.3162811393
Spallanzani D,6.28837,28.5701308244,-46.186526787
Stöfler O,9.16996,1.1930706569,-43.3688556849
Struve G,14.278,285.997117757,23.8960353873
Rima Gärtner,42.7274,35.765403881,58.8444957465
Struve H,21.1692,276.6441855884,25.1821561038
Street R,4.90408,345.3896236245,-49.1629314788
Street M,48.1925,345.4229989364,-47.8189826023
Taruntius L,14.2648,44.5200148604,5.456786141
Wilhelm C,15.494,340.3859949009,-41.6038937007
Tisserand K,12.9998,50.3312930066,19.7430491836
Vening Meinesz Q,16.2411,161.0291963888,-2.5152047404
Titius J,20.1969,101.594867227,-27.5154982953
Taruntius K,5.65418,51.5720519079,0.6459735578
Taruntius O,5.99703,54.3311329084,2.2298802154
Taruntius P,6.77586,51.5846985343,0.0603075528
Vening Meinesz C,39.9917,163.8388928772,1.1773484297
Vening Meinesz W,36.8662,161.0160947239,1.4015681178
Dorsum Zirkel,195.217,335.181315889,29.546786102
Purbach F,8.88792,359.9698479149,-24.5980556223
Purbach Q,4.02015,359.9580248157,-25.9232362953
Regiomontanus K,5.89767,359.9504877318,-30.2618544939
Dorsum Grabau,123.689,345.808785629,29.7580237641
Dorsa Argand,91.9386,319.663952746,28.291612306
Dorsum Guettard,40.4572,341.7359591152,-9.9174664389
Dorsa Aldrovandi,126.806,28.653703203,23.605945718
Vallis Schröteri,185.323,308.4194758899,26.155526029
Vallis Snellius,640,57.8381971094,-30.9262101415
Rimae Hase,257.236,67.7806247954,-34.7084326531
Dorsum Termier,89.6452,57.1532046192,11.6251106145
Dorsum Von Cotta,183.059,11.9526788814,23.5987860425
Rimae Arzachel,57,358.6168114724,-18.3077176847
Alfraganus,20.5207,18.970616994,-5.4216611086
Rima Rudolf,8.28816,29.6248633474,19.7095247597
Dorsa Lister,180.087,23.519186806,19.762450512
Dorsa Mawson,142.714,52.4834015196,-7.7747565334
Dorsa Rubey,100.639,317.637575967,-9.879058527
Rima Cauchy,167,38.0746277448,10.4150880884
Rima Cleomedes,45.5406,56.5145127093,27.9776257314
Rimae Repsold,152.054,279.5413204497,50.7365478146
Catena Sumner,220.517,111.9100980902,37.8917288312
Rima Schröter,27.245,353.7538898085,1.2752108406
Rima Agricola,125.078,306.5795778875,29.247735423
Rupes Altai,545.193,23.1240375914,-24.3175845568
Rima Artsimovich,68.0584,321.3542994494,26.6631983903
Rima Bradley,133.763,359.3961451669,24.173599056
Rima Brayley,327.263,323.6471506245,22.2978285153
Rima Calippus,40,12.6597321184,37.0315513473
Rima Cardanus,221.928,288.862543432,11.317531764
Rima Cleopatra,14.6607,306.1992618517,30.0314775608
Rima Conon,37.3188,1.853019879,18.6920813051
Rima Dawes,15,26.6303694875,17.577609876
Rima Delisle,57.5979,327.6518071977,30.8730285028
Rimae Palmieri,27.127,312.8299566137,-27.834610919
Aloha,2.54796,306.1204099232,29.7926088804
Rupes Liebig,144.783,314.0767156741,-25.1369772615
Rupes Mercator,132.403,337.1574593967,-30.2075456131
Rupes Recta,115.948,352.2981473929,-21.6748035845
Rima Diophantus,201.505,326.3265530412,28.7038252151
Rimae Menelaus,87,17.772363518,17.1046560152
Rima Draper,244.159,334.6328223334,17.369103417
Rima Marius,283.54,310.4582005255,16.3722586604
Alhazen,34.648,71.8278983871,15.914783442
Rima Mairan,120.511,313.1726502719,38.2788919735
Rima Marcello,3.9511,27.7388529882,18.589517326
Promontorium Kelvin,45.0064,326.5546626265,-26.9482080351
Rimae Maupertuis,50,337.1790116816,51.237242503
Rima Galilaei,185.877,300.7960963267,12.9081178306
Aliacensis,79.6473,5.130767469,-30.5951934973
Rupes Boris,8.58336,326.4005855296,30.673770516
Rupes Cauchy,169.845,37.0758503934,9.3108754635
Almanon,47.7583,15.1350762326,-16.8450281531
Rima Krieger,22.6225,313.7373572153,29.2938428415
Alpetragius,40.0233,355.4896007237,-16.047972455
Alphonsus,110.54,357.1537277659,-13.3879365676
Rimae Alphonsus,87,358.0572201079,-13.4031837961
Rimae Apollonius,89.6379,54.3306307977,4.3880961324
Alter,64.733,252.2030966518,18.7400891691
Rima Euler,104.972,329.6878898484,21.0841819482
Rima Flammarion,49.7475,355.3268085873,-2.3842250792
Rima Furnerius,65.854,61.171657664,-35.2950309649
Rima G. Bond,166.846,35.2509433369,32.8578178893
Rima Hyginus,203.96,6.7745586379,7.6163882267
Rima Jansen,45.1227,29.5115214324,14.4951359897
Rima Gay-Lussac,40.0373,337.6726593484,13.1771954962
Rupes Kelvin,85.915,326.826199483,-28.0280966375
Rima Hadley,116.086,3.1467116146,25.7159182995
Rima Hansteen,30.8937,307.0078253515,-12.0881716369
Rima Hesiodus,251.46,338.1506998987,-30.5395833347
Artemis,2.28156,334.6448139265,25.0326334448
Rima T. Mayer,67.8069,328.6290948567,13.2583576759
Rima Vladimir,10.5049,359.2460619329,25.1956681923
Artem'ev,66.391,214.7778307722,10.3953061736
Rupes Toscanelli,50.1373,312.4653762791,26.9708092004
Rima Milichius,140.724,327.1345664018,8.0293662886
Rima Oppolzer,94.2,1.2757337284,-1.5338389894
Rima Reiko,4.29252,27.7105534051,18.5523938715
Rimae Doppelmayer,7.7986,315.4706597367,-26.234486098
Rimae Focas,61,262.4585453194,-27.6803448011
Banting,5.14992,16.4284182359,26.5813507182
Rima Wan-Yu,13.7188,328.5667852304,19.9816815957
Rimae de Gasparis,46.6548,309.6965758766,-24.9874457987
Rimae Sirsalis,405,298.6435646516,-15.0052698395
Rimae Fresnel,75,3.7276506794,28.1116145998
Rimae Aristarchus,175,312.7517289702,27.5232775479
Ameghino,9.19562,57.037008701,3.299452768
Rimae Archimedes,215,355.4717816695,26.3359313973
Rimae Atlas,46.8,44.4177095564,46.8189694355
Amici,52.0325,187.772983337,-10.0620347574
Ammonius,8.55194,359.1739707123,-8.5209194514
Rimae Bode,233,356.7780303684,9.5423169904
Rimae Boscovich,32,11.2652857743,9.8710653053
Ball,40.3113,351.6057944586,-35.9227876232
Balmer,136.296,70.224705693,-20.2714537821
Rimae Bürg,98,25.2742348456,44.7046767997
Rimae Chacornac,100,31.2416598823,29.0099221703
Banachiewicz,99.0941,80.0096751428,5.2769730552
Bancroft,12.498,353.566052008,28.0659088961
Rimae Daniell,140.248,24.3277350085,37.5292563561
Barbier,65.3766,157.9336640492,-23.8502704575
Rimae Gassendi,70,320.1293766248,-17.4705756179
Rimae Gerard,110,275.6389143573,45.5395586283
Rima Suess,156.388,312.8596326735,6.6219861667
Rima Yangel',30.3946,4.7934550782,16.6242292075
Barkla,40.8976,67.2187393802,-10.6679774749
Rima Sharp,276.668,309.6387573317,46.0182141922
Rima Sheepshanks,157.492,23.6884870095,58.2755099404
Rimae Goclenius,190,42.8793912396,-7.8353390257
Rimae Grimaldi,162,296.1022338219,-6.181712745
Louville,34.8134,313.9604895904,44.1247723468
Arago,25.509,21.4261036202,6.1487057366
Aratus,10.233,4.5051915821,23.579312992
Rimae Darwin,170,293.34381033,-19.8415516548
Rimae Parry,210,343.4819703773,-8.0671463122
Archimedes,81.0417,356.0069060829,29.7172311104
Rimae Gutenberg,223,36.418592398,-4.4221382911
Rimae Mersenius,240,313.4712207601,-20.694372495
Rimae Posidonius,78,29.6055732745,32.0314464921
Rimae Herigonius,180,323.247081625,-13.9215555155
Rimae Janssen,120,39.2603658983,-45.7987907985
Rimae Hevelius,180,293.6233846129,0.8090510218
Archytas,31.9497,4.9924823167,58.8662011371
Barnard,115.735,85.9488810659,-29.7882943405
Barocius,82.7235,16.805821748,-44.9790550576
Rimae Petavius,110,60.483688615,-25.2340006412
Barringer,66.8931,209.5693814272,-28.2180620168
Rimae Kopff,250,271.8952084649,-14.6813329491
Rimae Littrow,165,30.4736091641,22.4677928563
Rimae Maclear,94,19.8989846428,12.2307536421
Rimae Maestlin,71,319.5172426014,2.8801885204
Rimae Plinius,100,23.1415322573,17.0508334622
Barrow,93.8209,7.5860172537,71.284403691
Rimae Hippalus,266,330.642903142,-25.5975633127
Rimae Hypatia,200,22.7769292128,-0.3399215705
Bartels,54.951,270.1547889615,24.506497702
Bouguer,22.2346,324.1772148473,52.3224356941
Rimae Opelt,55,341.8618489659,-13.6431837952
Rimae Sulpicius Gallus,80,9.9912741254,20.6540176599
Boss,50.2004,88.6799252331,45.7479677528
Rimae Pettit,320,266.3704250188,-25.2189049796
Rimae Ramsden,100,328.6781551729,-32.927871
Bonpland,59.2453,342.6658675823,-8.3755491388
Rimae Pitatus,90,346.3766450108,-29.8352430123
Stadius L,2.87053,347.0434636113,10.122523463
Rimae Plato,180,356.98491074,50.8791049754
Argelander,33.716,5.8011039273,-16.5492895792
Ariadaeus,10.401,17.2762775835,4.5549404105
Aristarchus,39.9945,312.5098748206,23.7298823185
Mare Fecunditatis,840.354,53.669148726,-7.834974467
Aldrin,2.80139,22.0899462614,1.4058505492
Alan,1.43526,353.8290857597,-10.9330563534
Aristoteles,87.5669,17.3200315754,50.2430496394
Rimae Taruntius,35,46.8276320707,5.8258362194
Rimae Theaetetus,53,5.8665357883,33.0351066581
Armstrong,4.21448,24.9437132814,1.3535174623
Rimae Zupus,130,306.2391728096,-15.4637185791
Aristillus,54.3711,1.2075473395,33.8808311692
Armi?ski,26.7602,154.2162216688,-16.3627608781
Alekhin,74.8167,228.1476073474,-67.9440462096
Rimae Ritter,75,17.9677581486,3.5009859204
Rimae Römer,112,34.8632778399,26.9834136528
Rimae Secchi,35,44.0831751983,0.9926780709
Rimae Triesnecker,200,4.8328569746,5.1042366373
Rimae Vasco da Gama,10.3936,275.9666252961,11.5456879947
Alexander,94.8028,13.6931543756,40.2515214747
Rimae Prinz,10.9486,316.4941400674,27.0451688149
Rimae Riccioli,250,286.928977863,-1.5152267883
Abulfeda,62.2345,13.9102981682,-13.8650869926
Acosta,13.0615,60.1394730653,-5.6453050883
Hainzel T,12.1313,322.6762071639,-40.1978959713
Liouville,16.1213,73.5658785028,2.7278332192
Adams,63.2702,68.3869015354,-31.8916341692
Landsteiner,6.11065,345.2103176911,31.2983150266
Agatharchides,51.9832,328.8853814399,-19.8537009804
Mare Humboldtianum,230.782,81.542834414,56.922095552
Mons Vitruvius,44.2779,30.7352684106,19.3334578741
Agrippa,43.7467,10.4741346962,4.0963994254
Airy,38.8999,5.6148579837,-18.141628015
Mare Humorum,419.669,321.428394647,-24.478459706
Al-Bakri,12.2124,20.2451109278,14.3353921449
Aitken,129.693,172.9582571045,-16.4429815937
Akis,2.28179,328.2405999396,20.0108621824
Al-Khwarizmi,56.2527,107.0061750541,7.0218534723
Al-Marrakushi,8.56535,55.7702662777,-10.446738337
Al-Biruni,80.4102,92.6161762878,18.0712940391
Boris,1.72605,326.4993259488,30.5339071482
Albategnius,130.84,4.0091971112,-11.2400256943
Alden,111.437,111.114133901,-23.5084011266
Billy K,4.20547,311.1429647569,-12.9691611191
Arnold,93.1332,35.8286286822,66.9846241263
Mare Marginis,357.632,86.515294255,12.701879385
Krogh,19.1723,65.6890927821,9.4127242567
Alder,82.1233,182.1162753916,-48.6255337543
Mons Hadley Delta,17.2415,3.7065085054,25.723002792
Blanchinus M,4.11423,2.5777845656,-25.2202068241
Arrhenius,40.93,268.5463398253,-55.5836943611
Artamonov,62.4458,103.7853210923,25.4386629912
Amontons,2.46726,46.7779314306,-5.3372120931
Amundsen,103.395,83.06914954,-84.439795442
Anaximander,68.7114,308.5583169317,66.9670764411
Mare Moscoviense,275.57,148.122479065,27.281589339
Anaxagoras,51.8959,349.8287506055,73.4809992224
Ango,0.870772,327.6620489068,20.4775458872
Anaximenes,81.1167,315.0174977768,72.4850219874
Anders,41.3265,216.6990019953,-41.3145650912
Mare Nectaris,339.387,34.602054138,-15.185168062
Anderson,105.328,170.794244715,15.4992990956
Andersson,13.4195,264.5372437542,-49.9497536506
Mare Serenitatis,674.278,18.35964442,27.287884702
Andronov,16.5674,146.108214811,-22.680695684
And?l,32.9312,12.3834536936,-10.414128458
Mare Smythii,373.965,87.049470546,-1.708755471
Mons Wolff,32.8665,353.1986068474,16.8790637533
Mont Blanc,21.5677,0.4402752114,45.4129954054
Angström,9.55012,318.3325650605,29.8956843506
Ann,2.11887,359.9459753739,25.1094420388
Birt E,5.34166,350.3376836635,-20.7221165054
Annegrit,1.28604,334.3635375191,29.4308552971
Ansgarius,91.4188,79.7231037616,-12.9235069879
Anville,10.2573,49.5079956544,1.8428023233
Antoniadi,137.917,186.9415237233,-69.3026425031
Blancanus G,9.33171,334.810864487,-63.1340062693
Apianus,63.4398,7.8682325785,-26.9625258321
Apollo,524.232,208.5222730098,-35.6874066055
Anuchin,62.1396,101.6597407714,-48.8530487794
Asada,12.3729,49.901760876,7.2466457094
Apollonius,50.6614,60.9648053473,4.5053065115
Tucker,6.78147,88.2091362013,-5.6197616004
Appleton,64.591,158.1689046656,37.0464734689
Artsimovich,7.95956,323.371915572,27.6115641996
Montes Recti,83.2378,340.2760843666,48.2956728712
Aryabhata,21.8898,35.1732611314,6.2027997487
Arzachel,96.988,358.0696359951,-18.2643216016
Montes Carpatus,333.592,336.3755448601,14.5676725393
Asclepi,40.5625,25.5231240806,-55.189918632
Ashbrook,157.68,249.424997279,-81.104278149
Montes Caucasus,443.505,9.9310525587,37.518823092
Auwers,19.6421,17.1184058564,14.996757176
Aston,44.4792,272.3151786803,32.765841895
Yoshi,0.504015,10.9922696806,24.5615363669
Atlas,88.1165,44.3816029924,46.7402737643
Galilaei,15.9856,297.1675441551,10.4804277807
Atwood,28.6444,57.7750179395,-5.8770230634
Autolycus,38.8787,1.4858335169,30.6756788201
Zasyadko,10.2665,94.1882880603,3.9551857236
Auzout,32.921,64.0091762157,10.20784114
Avery,10.7297,81.3666781233,-1.3171559285
Hippalus A,7.61749,327.147618876,-23.8203798187
Avicenna,72.9882,262.7231846536,39.62543378
Borel,4.66243,26.4240813365,22.3735431732
Avogadro,129.84,165.3644816227,63.2138020022
Azophi,47.5411,12.6957785458,-22.1930271654
Harpalus S,4.42114,309.5989670576,51.5513016114
Baade,57.8506,277.9654312075,-44.7495815356
Babakin,19.1525,123.2634513853,-20.8126273831
Harpalus T,4.34838,310.4275565598,50.1219095088
Babbage,146.558,302.616938195,59.5623298967
Babcock,95.2773,94.135660628,4.1343356607
Messier E,5.01583,45.4310611299,-3.3476963019
Back,34.6326,80.6680486519,1.1964056818
Backlund,75.4624,103.3466323169,-16.2170440675
Hevelius L,7.59749,289.522206981,2.0412487916
Baco,65.3077,19.0964448549,-51.0441213249
Baillaud,89.4393,37.351742773,74.6078182698
Hippalus B,4.98141,329.6076299279,-25.2319660084
Bailly,300.565,291.1046376088,-66.8214676029
Baily,25.6756,30.5582288068,49.7797997235
Hippalus C,3.3313,329.3612622588,-24.1432129993
Balandin,11.8059,152.5835514838,-18.9418649387
Balboa,69.1947,276.6920367875,19.236680416
Hyginus C,4.1494,8.3146433031,7.686588596
Baldet,55.7589,208.040244988,-53.3199159487
Boole,61.3367,272.7146306213,63.7884666083
Hyginus D,4.71462,4.3293506465,11.402244803
Borda,45.4021,46.5225775753,-25.1951863778
Gardner,17.6165,33.8132687599,17.7474226835
Borman,50.7229,211.7483893861,-39.062674185
Glauber,15.2441,142.6659760818,11.3172453668
Golitsyn,35.4655,254.803803969,-25.1987031734
Born,15.0674,66.827353069,-6.0526082758
Al-Khwarizmi M,16.4008,107.4401856012,3.0531594805
Boscovich,41.5288,11.0111043081,9.7109291331
Lippershey M,1.84367,349.1024679955,-24.279246669
Bayer,48.5144,324.8552814076,-51.6207024618
Bose,92.553,190.6393933371,-53.9530487743
Bawa,1.57104,102.5585855855,-25.2769695376
Suess J,3.31917,311.4688079398,6.8936746294
Beals,52.6085,86.5785304188,37.1089897965
Marius K,3.61139,309.3012695961,9.3998316115
Beaumont,50.6859,28.8228540117,-18.0806977976
Behaim,56.2112,79.4050676366,-16.6056270178
Marius U,2.2964,312.3040045481,9.5606101086
Beer,9.05923,350.8983273895,27.0746037346
Becquerel,62.8566,129.5013390059,40.7945488241
Fairouz,2.86513,102.9466740468,-26.0686394781
Beijerinck,76.7658,151.8374982803,-13.4015602617
Das,35.9466,222.9500860407,-26.4903960462
Beketov,8.29708,29.1769262654,16.2309108109
Bell,86.3335,263.4681783139,21.9781520179
Nöggerath P,9.9308,318.0568464349,-47.6943173562
Bellinsgauzen (Bellingshausen),63.2287,195.1506734803,-60.7162785715
Bellot,17.4962,48.1944997598,-12.4759823699
Pontanus O,10.0875,14.092971058,-26.0957688442
Belopol'skiy,61.9035,231.7659727802,-17.2507624304
Bel'kovich,215.08,90.1470230114,61.5277678436
Pontanus Q,4.69756,14.3991806637,-27.4101238205
Belyaev,55.9043,143.1111442813,23.0964166032
Benedict,13.8319,141.5364304064,4.3491975402
Bergman,22.5067,137.4895893417,6.9731170322
Bergstrand,42.9824,176.4405393698,-18.7246431545
Pontanus R,5.8561,15.6086832772,-28.1972363205
Berkner,87.6163,254.7642857891,25.1259212686
Berlage,93.7469,196.391713265,-63.0414121765
Stöfler T,4.68245,8.1042013338,-39.6890765389
Bernoulli,47.2999,60.6124011726,34.9295120512
Römer Z,11.5953,37.046993571,24.1260442943
Boethius,11.1656,72.3339963993,5.5689539085
Berosus,75.2366,69.992161047,33.4955593281
Heraclitus A,4.96525,4.5415577242,-49.4125618282
Bessel,15.5632,17.9203538414,21.7342309503
Stevinus A,7.8653,51.6496998723,-31.8570396401
Bettinus,71.784,314.8397692098,-63.3968854904
Berzelius,48.5303,50.9547766417,36.551821064
Bessarion,9.84025,322.692473472,14.8510497603
Be?vá?,66.6197,125.0733050658,-2.5739631432
Bianchini,37.5887,325.6260554259,48.7814090212
Bhabha,70.2548,194.6882242297,-55.4971079421
Bingham,34.9873,115.0543283436,8.016326172
Biela,77.0286,51.6285461146,-54.9914736926
Bilharz,44.5535,56.3438016205,-5.82781626
Billy,45.5714,309.7618394282,-13.8323985112
Biot,13.0086,51.079832344,-22.7002640589
Mason B,9.80698,29.6605918169,41.8415287536
Birkhoff,329.812,214.3480994192,58.4541173248
Bombelli,9.72291,56.1868549651,5.2800491896
Mersenius L,3.71595,311.5919963546,-19.9363633111
Birkeland,81.6393,174.0097355427,-30.1660641241
Lick,31.6266,52.843419721,12.3559254833
Birmingham,89.9166,349.302129768,65.1237699286
Birt,15.8073,351.4077441783,-22.3635828867
Bjerknes,48.1785,113.6885335813,-38.4951711777
Black,19.4624,80.3948731019,-9.1959285161
Blackett,145.305,244.1642522315,-37.5492886701
Blagg,4.97062,1.4638763498,1.2189411144
Blancanus,105.822,338.3700753348,-63.7697389054
Blanchard,37.4594,266.5041624479,-58.2479787686
Blanchinus,59.901,2.4438579374,-25.3156147984
Blazhko,51.1116,212.1365933799,31.3685132167
Bliss,22.8495,346.22067016,53.0433451556
Bobillier,6.0441,15.4354495421,19.6311013793
Bobone,32.144,227.8834673558,26.7013920582
Bode,17.7961,357.5479129081,6.7100734497
Boguslawsky,94.586,43.2572241076,-72.9012125909
Bohnenberger,31.7392,40.0555892226,-16.237717155
Bohr,70.0707,273.4759177232,12.7063102061
Bok,43.0282,188.4171379065,-20.2595862701
Boltzmann,72.3142,269.5931182206,-74.822856603
Bolyai,102.22,126.1210281339,-33.851876351
Bondarenko,28.2591,136.8896340837,-17.2442876219
Boussingault,127.609,53.7341705932,-70.2063336217
Bowditch,43.0402,103.066049404,-24.966198859
Bowen,8.0906,9.098012774,17.628098602
Boyle,57.1273,177.8934904669,-53.288164896
Dag,0.357669,5.2622137988,18.7097567676
Brackett,8.87183,23.5355673168,17.8399443373
Brayley,14.1665,323.0627168867,20.8962808781
Bragg,77.2061,256.5618679545,42.3266400983
Bruce,6.14427,0.3738993993,1.1641509463
Brashear,60.1609,188.4257898625,-73.5361656159
Faye,38.0209,3.8115958827,-21.3938296283
Bredikhin,61.6783,201.6286344019,17.25471753
Breislak,48.6392,18.3096308113,-48.3075294526
Brenner,90.0107,39.1078279758,-39.0935797949
Brewster,9.83202,34.6857320808,23.2693784999
Brianchon,137.264,271.6358367914,74.7511541824
Bridgman,81.8857,136.9795954043,43.3859447302
Briggs,36.7534,290.8127335774,26.4527967875
Brisbane,44.3205,68.7569424772,-49.199724081
Bronk,66.1587,225.3293807903,25.8999837243
Chadwick,29.7416,258.6575848933,-52.8520218098
Brouwer,119.597,235.251893063,-35.8245196924
Brown,34.032,342.0118923446,-46.527895086
Brunner,50.6558,90.9126414879,-9.8573986541
Clerke,6.66092,29.7981324523,21.6803231301
Carlini,10.6575,335.8805584827,33.7499218711
Buch,51.3131,17.6786178381,-38.8990485615
Buffon,105.757,226.4660629463,-40.6442252208
Bullialdus,60.7188,337.7367868591,-20.7477098539
Buisson,61.265,112.9508164325,-1.4670562003
Coblentz,32.6647,126.651327567,-38.0931948184
Bunsen,55.2238,274.5403507462,41.4035838085
Burnham,24.0915,7.2512975482,-13.9207623358
Burckhardt,54.3647,56.3876231043,31.107233948
Censorinus,4.09757,32.6907022249,-0.4168805982
Butlerov,38.7725,251.1948286277,12.0499764362
Chrétien,98.6273,162.9911387331,-46.1145016709
Cichus,39.1848,338.8174806507,-33.2877157259
Clairaut,76.8948,13.8617577766,-47.8361019839
Buys-Ballot,66.3753,174.8224364666,20.85734536
Byrgius,84.4621,294.6201245883,-24.7310544422
Béla,10.074,2.269287285,24.6650418642
Büsching,53.4948,19.9551112592,-38.0424634938
C. Mayer,37.5397,17.3072432912,63.256230596
Cabannes,81.3013,189.7936339861,-61.2401020091
Cabeus,100.582,317.8673120654,-85.3303035352
Cailleux,52.854,153.4986907751,-60.4115236236
Cepheus,39.4336,45.780613367,40.6809506074
Chacornac,50.4436,31.6668997704,29.8839858778
Chaffee,51.7528,205.3713282016,-39.0649945061
Challis,53.2102,9.085563352,79.579877137
Chalonge,25.0785,243.650736668,-20.4390706328
Chamberlin,60.4141,96.0379383327,-58.8338873154
Champollion,48.9722,175.0291974598,37.3916871551
Chandler,88.6032,171.7596610278,43.6460088521
Cajal,8.56634,31.0750414186,12.5927603591
Cajori,74.6485,168.6971525527,-47.6679799833
Cameron,10.9072,45.9336787804,6.1862884081
Campanus,46.4051,332.1020889919,-28.0425576935
Campbell,222.479,152.9073250636,45.573759055
Cannizzaro,54.5142,260.2705209808,55.5048597383
Cannon,57.5759,81.3641311089,19.875239735
Cantor,75.722,118.6877753562,38.039700413
Capella,48.1303,34.9164473438,-7.647605214
Capuanus,59.6857,333.2683761763,-34.0926394761
Cardanus,49.5739,287.5016661752,13.2715756353
Carmichael,19.7312,40.3618558746,19.5341871912
Carnot,126.065,215.7973766193,52.0938056318
Clark,52.107,119.347779739,-38.6745614172
Clausius,24.1981,316.0653045957,-36.9030390935
Clavius,230.77,345.2725096824,-58.6228308842
Cleomedes,130.771,55.5005439201,27.6004844976
Cleostratus,63.2265,282.6029627449,60.3195796892
Ching-Te,3.70144,29.9680696798,20.019549361
Cockcroft,92.1619,197.0918930883,31.0912998645
Hartmann K,11.6487,136.1092977586,1.4086997559
Carpenter,59.061,308.766356384,69.5155502477
Carrel,15.5876,26.6795744523,10.6654781512
Promontorium Taenarium,70,352.6578203221,-18.6301155597
Carrillo,17.852,80.9606890871,-2.1111073321
Carrington,27.773,62.0366322645,43.9673620682
Cartan,15.6227,59.2866522962,4.2416253106
Carver,62.4534,127.5977553129,-43.4558706241
Casatus,102.85,329.2523895706,-72.6963598363
Cassegrain,56.6561,113.2981174929,-51.9529047805
Cassini,56.8766,4.6436567893,40.2502620087
Condon,34.8545,60.3601343497,1.873078109
Catalán,26.7735,272.6284130083,-45.6954511324
Catharina,98.7724,23.5521102022,-17.9801519497
Cauchy,11.8037,38.6261250314,9.5561486468
Cavalerius,59.3496,293.0719551529,5.0972947475
Cavendish,52.6367,306.2167132114,-24.6250982685
Caventou,2.80206,330.6224413359,29.7436570492
Cayley,14.2038,15.0896029005,3.9378981269
Celsius,38.9583,20.0455525648,-34.0979978474
Chang Heng,42.6541,112.2149067144,18.9037530645
Chang-Ngo,2.33637,357.8350321756,-12.687088813
Conon,20.9647,1.9503968795,21.6570579207
Chant,33.5997,250.5414627721,-40.1352426947
Chaplygin,123.386,150.2374327581,-5.7648924205
Chapman,76.8347,259.5292197416,50.0914786735
Chappe,55.7928,268.7596766227,-61.2912531575
Chappell,73.9154,183.229640109,54.5316951341
Charles,1.33951,333.634366089,29.8968477355
Charlier,109.882,228.3091375335,36.2196705058
Chaucer,45.4757,219.2927729804,3.3859820103
Chauvenet,77.674,137.1979234059,-11.6360138683
Chebyshev,179.051,227.1167148007,-34.0106064823
Chernyshev,59.3107,174.4078296309,47.0115467529
Chevallier,51.8321,51.5726101665,45.0092525837
Chladni,13.0723,1.1171964691,3.9869201801
Collins,2.57675,23.7089166984,1.2980605729
Curtis,2.87835,56.7921195462,14.5741212803
Colombo,79.0192,46.0217804045,-15.255041918
Compton,164.628,104.054816252,55.8621586293
Comrie,59.254,246.8306338772,23.3931569321
Comstock,73.2312,237.949786057,21.5915833646
Condorcet,74.8533,69.5831661977,12.0996080114
Congreve,57.605,192.1585228774,-0.2801090372
Cook,45.1617,48.8071565783,-17.4974941799
Cooper,51.8716,175.9201292198,52.6816399875
Copernicus,96.0699,339.9213794917,9.6209452164
Cori,67.223,207.0947506137,-50.4801934873
Coriolis,78.5566,171.795388208,0.5643468323
Couder,18.5581,267.4175200481,-4.9013405012
Coulomb,89.7186,244.9987453468,54.4620133847
Courtney,1.23623,329.1949191443,25.1350347455
Lansberg P,2.42747,336.9740933301,-2.3630948522
Cremona,85.1247,269.1428822895,67.2352168163
Crile,9.29967,45.9841961747,14.2083189277
Crocco,67.5008,150.5057605452,-46.9804118068
Crommelin,93.4768,212.0484741739,-67.4613945005
Crookes,48.251,194.8975527935,-10.3961359215
Deseilligny,6.01251,20.5874800697,21.1290992236
Crozier,22.5136,50.7176891693,-13.5594811889
Crüger,45.9446,293.0397564739,-16.6768604663
Ctesibius,32.0972,118.7510095921,0.8347711885
Curie,138.869,92.2792630871,-23.0455423211
Curtius,99.2923,4.4049404469,-67.0793711698
Cusanus,60.8699,69.4003580993,71.8208064147
Cuvier,77.299,9.6920750352,-50.2926835344
Cyrano,79.5841,157.3738232479,-20.3652877798
Harden,14.9845,143.5474873376,5.4644031653
Fauth,11.9353,339.8635703885,6.2314990652
Cyrillus,98.0857,24.0654689074,-13.2913292058
Cysatus,47.7729,353.6617787825,-66.2082053216
da Vinci,37.4645,44.954849532,9.1048015874
Daguerre,45.787,33.6134734939,-11.9067171655
Dale,23.4059,82.9298877483,-9.5580871124
Dalton,60.6854,275.5481954628,17.0654871042
Daly,14.963,59.5003628417,5.744208422
Damoiseau,36.6634,298.7499780056,-4.8513905878
Danjon,69.3041,123.9033080844,-11.4209361811
Darney,14.8118,336.4317645796,-14.607087341
Darwin,122.182,290.7948717475,-19.9278829717
Daubrée,14.6665,14.7463616304,15.7297907582
Davisson,92.4601,185.0346695381,-37.9272277492
Davy,33.9388,351.8508814538,-11.8470183198
Dawes,17.5965,26.3430774142,17.2081688343
Townley,17.676,63.1872170301,3.4243549106
Dawson,44.315,224.9516417251,-66.9896533596
De Forest,56.2551,196.6666689247,-76.9356317466
Promontorium Laplace,50,334.4922806463,46.8449186302
de Gasparis,30.8963,309.1736090711,-25.8330809033
De La Rue,135.221,52.8408719503,59.0179046901
de Gerlache,32.7054,271.6553136194,-88.4849214015
Feuillée,8.93986,350.5385025661,27.3723730129
De Moraes,54.4107,142.9963886637,49.3821486626
De Morgan,9.67984,14.8881796494,3.3060327321
De Roy,43.5058,261.0136633938,-55.2350862589
De Sitter,63.7857,38.5700603131,79.8122905621
De Vries,57.5096,183.2152575328,-19.6813301404
Finsch,4.05337,21.2692773369,23.582827548
Debes,31.9244,51.6239687274,29.4739122913
Debus,19.7657,99.6833450858,-10.6828835383
Debye,127.034,183.9731487606,49.4259732984
Dechen,12.0422,291.8187337421,46.120445441
Delambre,51.4861,17.3940399375,-1.9391106973
Lansberg X,2.99474,332.1294786536,1.202739586
Delaunay,44.6255,2.6187160824,-22.2577182068
Delia,1.57281,353.8743429781,-10.9124412363
Delisle,24.8346,325.3227975199,29.9831494337
Dellinger,82.0399,140.695547561,-6.8685440666
Delmotte,32.1562,60.2047594684,27.16145731
Lansberg Y,3.55828,331.8120802729,0.6950829111
Delporte,42.4973,121.5544297523,-15.8938275321
Democritus,37.7816,34.9905263639,62.3076278939
Deluc,45.6893,357.0246317755,-55.0164988173
Golgi,5.58259,300.0447167756,27.7848630045
Dembowski,26.1075,7.274300577,2.8779193374
Demonax,121.931,59.355239677,-78.0863656151
Denning,44.1759,142.755248766,-16.2615607397
Laplace A,8.15887,333.0653468959,43.7442221639
Desargues,84.8471,286.576358216,70.2481664615
Descartes,47.7288,15.666680325,-11.7428154212
Laplace B,5.04428,340.1432728582,51.3451078361
Dionysius,17.2471,17.2930228719,2.7732833795
Deslandres,227.019,354.4284454056,-32.5540446541
Diderot,20.0024,121.5438121131,-20.4174106551
Deutsch,73.3332,110.9087993878,24.3486427312
Fox,23.9678,98.1443784488,0.4715184379
Dewar,46.3072,165.6225519771,-2.6123033903
Diana,1.55398,35.6540066264,14.2945523633
Diophantus,17.5717,325.7021291196,27.6193603214
Dirichlet,47.2415,207.9480385249,10.5799614112
Dobrovol'skiy,38.3961,129.6762137653,-12.8346707972
Dollond,11.0408,14.4129785009,-10.4832595939
Doerfel,68.6322,251.4724648922,-68.9688429652
Gaston,2.01953,326.0400707422,30.877650376
Donati,35.8428,5.1006850337,-20.6941108366
Edith,6.92068,102.3273316759,-25.7670432694
Eijkman,56.3626,217.4851764801,-63.2132994125
Eichstadt,49.5724,281.5818090393,-22.6281015422
Dorsa Whiston,138.931,303.0382231206,29.7664304747
Douglass,50.9466,237.2786137603,35.4984604496
Eimmart,44.9899,64.803918676,23.9676449728
D'Arrest,29.6682,14.6041282213,2.2648087124
Einstein,181.473,271.3455428721,16.6030430183
Einthoven,73.9351,110.0642765919,-5.0596702232
Elger,21.5146,330.189014451,-35.4004448063
Donna,1.84247,38.3049844066,7.2202786272
Donner,55.0533,97.994524621,-31.3545071809
Doppelmayer,65.0781,318.4929936737,-28.4779173197
Doppler,101.789,200.1583867134,-12.5828418967
Dorsa Andrusov,80.9774,56.7698861963,-1.559296456
Dorsa Burnet,194.994,303.218787249,26.178094211
Dove,30.3581,31.4241959672,-46.8321515663
Draper,8.27739,338.2464400676,17.5641355358
Drebbel,30.2327,310.8780702696,-40.9343181659
Drygalski,162.489,272.8230167279,-79.5737829978
Dreyer,63.8433,97.0948023783,10.2372352854
Drude,27.1346,268.1112039455,-38.5644255414
Dryden,54.4502,203.8493267608,-33.2146696635
D'Arsonval,30.365,124.5873731547,-10.3139072432
Dubyago,48.1205,69.9490364243,4.3831405994
Dufay,36.1064,169.5397020981,5.5665934776
Dugan,49.652,103.1059235343,64.1212619891
Dunthorne,15.1165,328.2941641857,-30.1188430255
Dyson,63.1361,238.2914145943,60.8742052423
d'Alembert,233.554,164.8907237789,51.0722877459
Dziewulski,68.9047,99.0150880632,20.9850179027
Eckert,2.61871,58.3775281277,17.2829851855
Eddington,120.13,287.982526858,21.5025410494
Edison,62.7218,99.2680465418,24.8804936908
Egede,34.1821,10.6359302591,48.7172955139
Ehrlich,33.5812,187.7314733545,40.8161219553
Ellerman,46.2076,239.6069237996,-25.4384176352
Ellison,36.9868,251.9539768804,54.9332161965
Elmer,16.8611,84.1776710704,-10.2318187204
Elvey,80.2062,259.3556501642,9.0085192138
Encke,28.266,323.3170408294,4.570702976
Endymion,122.101,56.4832473681,53.6066804058
Engel'gardt (Engelhardt),43.5121,200.5315081553,5.3889711757
Epigenes,54.5122,355.3778820137,67.4973553116
Epimenides,22.5611,329.6688303698,-40.9172344774
Eratosthenes,58.7678,348.6838070236,14.4737157746
Erro,63.7509,98.5399530207,5.6829269507
Esclangon,15.292,42.06182896,21.4684510374
Esnault-Pelterie,76.7867,218.174300207,47.4149176386
Espin,70.0087,109.3384542939,28.1455217378
Euclides,11.7987,330.4361334088,-7.4008580343
Euctemon,62.6967,30.5690624202,76.2590315118
Euler,26.0254,330.8189698903,23.2626921604
Evans,69.3952,226.2217701029,-9.6266033205
Evdokimov,48.8806,206.9572978613,34.5737647867
Fahrenheit,6.65357,61.7051062256,13.1217253565
Evershed,65.2774,200.4941354843,35.3008024128
Maskelyne,22.4199,30.0436894374,2.1557566625
Eötvös,101.798,134.4271777027,-35.6096602249
Fabbroni,10.5495,29.2714610455,18.6578695426
Fabricius,78.897,41.8420823149,-42.750928261
Fabry,179.438,100.6843666912,43.0733567115
Faraday,69.0266,8.7474503292,-42.446070946
Faustini,42.4846,84.3099027028,-87.1832458676
Fechner,59.3242,125.0313539465,-58.2462260297
Felix,1.44721,334.6233815409,25.0863944069
Feoktistov,22.0627,140.5013628514,30.734707829
Fermat,37.7738,19.7923324082,-22.7112874354
Fermi,241.407,123.2414041416,-19.6096500546
Fernelius,68.4171,4.8587832053,-38.1782700743
Fersman,148.144,233.9377057937,17.9028831933
Fesenkov,36.1183,135.1414349405,-23.1589602283
Finsen,72.9789,182.2794669889,-42.291444502
Firsov,50.998,112.6972616686,4.2043081643
Firmicus,56.8067,63.4259152168,7.2455048294
Fischer,30.4767,142.4391295056,7.9898766944
Fitzgerald,104.211,187.8638012696,26.6744278715
Foucault,25.0799,320.1381911804,50.4589177127
Fizeau,107.079,225.8852338448,-58.1864291662
Grachev,34.9843,251.5788977734,-3.8349953012
Flammarion,76.1779,356.2674649196,-3.3285648346
Flamsteed,19.3431,315.6601613367,-4.4906049489
Fleming,126.37,109.2776268344,14.9098051066
Halley,34.5899,5.7297854145,-8.0491633787
Huggins,65.7894,358.4807878939,-41.0686876631
Humason,4.33812,303.3406856335,30.7305028172
Humboldt,199.459,80.9636416647,-27.0212013665
Hume,22.2952,90.4736917929,-4.6769479004
Focas,22.0423,266.0889282082,-33.704566792
Fontana,31.4709,303.2094609393,-16.0393789955
Fontenelle,37.6818,341.043930232,63.4192278657
Foster,37.0194,218.5064809583,23.5877105764
Fourier,51.5687,306.8953619206,-30.3131106015
Fowler,139.522,214.7346437689,42.5861776934
Fra Mauro,96.7592,343.0261982102,-6.0610241107
Fracastorius,120.575,33.0703072163,-21.3587480212
Franck,11.9093,35.5593665474,22.5870380276
Franz,25.4825,40.2445308715,16.568649823
Fredholm,13.3907,46.5526322952,18.3660633915
Glaisher,15.9163,49.340595529,13.1870284135
Fraunhofer,57.7538,59.063445977,-39.5154754055
Godin,34.2455,10.1583335084,1.8235409419
Glazenap,38.9614,137.7565419786,-1.8512273877
Glushko,40.0986,282.3322447011,8.1123555444
Goclenius,73.0388,45.0310198102,-10.0504319271
Goddard,93.1849,89.1274518365,15.1545051788
Freundlich,83.1634,170.8940454709,25.0026182182
Greaves,14.2686,52.7913690665,13.1821461629
Fridman (Friedmann),101.451,233.1212369635,-12.4811836444
Frost,78.2977,241.0990470037,37.4071878429
Froelich,56.7327,248.3684074961,80.0014306132
Fryxell,17.6226,258.3477000648,-21.2543619217
Furnerius,135.029,60.5382795657,-36.0037642026
Fényi,43.3074,254.9413809051,-44.9406152689
G. Bond,19.0476,36.3221179625,32.3873327532
Gadomski,65.6568,212.6421005921,36.2108122327
Galen,9.1846,4.9605659466,21.9549418509
Galle,20.9588,22.3285848229,55.873267564
Galois,231.968,207.0067545772,-13.9394346551
Galvani,76.8289,275.4381688803,49.5121136166
Gambart,24.6751,344.7610664761,0.9236054615
Gamow,113.916,144.6453871819,65.2868892284
Gaudibert,33.1379,37.8231605628,-10.9293594116
Ganskiy (Hansky),42.1064,97.002913119,-9.640576855
Geissler,17.3899,76.50518072,-2.5969334852
Ganswindt,77.5171,111.1673096438,-79.4155299679
Garavito,81.0475,156.7810349212,-47.2132493337
Gambart B,10.8333,348.4141422064,2.1614399781
Gassendi,111.391,320.0362731932,-17.5545761165
Gruithuisen,14.9755,320.2208272922,32.8866706774
Gauricus,79.6404,347.25799901,-33.9065612903
Gauss,170.723,79.0766538229,36.006284936
Gavrilov,61.6176,131.2221882359,17.4083568557
Gay-Lussac,25.4037,339.2072060894,13.875025592
Geber,44.675,13.8479064284,-19.4614493605
Geiger,36.6341,158.4092013442,-14.3876772517
Geminus,81.9779,56.6606654843,34.4197112047
Hansen,41.1798,72.5423388022,14.0438470645
Gemma Frisius,88.5425,13.368452884,-34.328488057
Haret,29.7736,183.8146437958,-58.7710016912
Hargreaves,17.9957,64.0925567821,-2.1783379962
Gerard,98.7806,279.4937186397,44.5352938318
Gibbs,78.7631,84.2675455015,-18.3659419764
Gerasimovich,90.1865,236.5809360644,-22.9519371237
Helmert,26.7178,87.6719178516,-7.5640446625
Gernsback,47.2049,99.5260984418,-36.5261451565
Holetschek,37.7677,151.1462727538,-27.6129375796
Gilbert,100.247,76.159808522,-3.1950294055
Gill,63.896,75.9456569252,-63.7652018583
Ginzel,53.234,97.4003316241,14.2495538993
Giordano Bruno,22.1322,102.8933410228,35.9686045265
Golovin,37.8639,161.2441627956,39.7527810004
Goodacre,44.0936,14.0754669041,-32.674630094
Gould,32.9929,342.7522382252,-19.2580335594
Grace,1.48523,35.8933779873,14.2082096138
Al-Khwarizmi T,14.0541,104.9646689245,7.0606557672
Graff,36.1647,271.290287374,-42.3031717115
Grave,36.9458,150.2303713244,-17.0433431026
Hilbert,173.237,108.3205365557,-17.8731905884
Gambart C,11.6684,348.1777075102,3.3247472979
Green,68.2794,133.1160891649,3.6851571175
Gregory,63.901,127.2797070943,1.7586342156
Gassendi N,3.74003,320.6809850215,-18.0689124025
Grigg,36.7248,229.8686368806,12.5030087968
Grimaldi,173.488,291.6369732182,-5.3750013675
Grissom,59.8178,212.0234695365,-46.9237421534
Mavis,1.09186,333.642627257,29.7613801339
Grotrian,36.7831,128.2830291515,-66.1517245446
Grove,28.5456,32.9834015346,40.3029876769
Gruemberger,91.4958,349.6979177118,-67.0412894563
Guericke,60.7515,345.8127813432,-11.5663109082
Guillaume,56.7476,186.6165822636,45.1577294845
Gullstrand,45.0523,230.3333607754,44.9534695206
Hornsby,2.85253,12.5087318669,23.7950086681
Herigonius,14.8583,326.0286845694,-13.3555378283
Gum,54.5466,88.9088251575,-40.3369735618
Gärtner,101.789,34.7578645621,59.2432869471
H. G. Wells,108.898,122.6287348706,40.8412202268
Gutenberg,70.6499,41.248985655,-8.6137192839
Guthnick,37.0255,265.9643803162,-47.7590269099
Guyot,98.2813,117.1219779878,11.6256499849
Hermann,15.9209,302.5309106102,-0.8745993034
Hagecius,79.5493,46.6292670296,-59.9167749734
Hagen,57.5202,135.947820162,-48.3204803685
Hahn,87.4939,73.5490296521,31.2160227327
Haidinger,21.3262,334.8610765403,-39.1763413252
Hainzel,70.5643,326.4792663356,-41.2315131983
Haldane,40.2551,84.1053558507,-1.6589555466
Hall,31.7693,36.7501002016,33.8093327168
Hamilton,57.4543,84.4127412193,-42.7748281706
Hale,84.4167,91.7125273995,-74.1260691803
Hanno,59.5414,71.3841436043,-56.4637034673
Hansteen,44.9905,307.940846827,-11.5307060654
Horrocks,29.6544,5.849100661,-3.9887018567
Hortensius,14.1617,332.000467655,6.4670931648
Houtermans,42.6776,87.3759603164,-9.4193893191
Houzeau,76.8435,236.1076713588,-17.2491761331
Hubble,81.8369,86.9076234333,22.2895654435
Isabel,1.22254,325.9322000043,28.1840998187
Harlan,63.452,79.6475141515,-38.3073317262
Harold,1.43472,353.9307929319,-10.8804812748
Harpalus,39.769,316.5061992076,52.731599965
Hartwig,78.4557,279.5305523961,-6.1356034092
Harriot,52.7728,114.3960108698,33.1984765091
Hatanaka,30.1455,238.0761806961,29.3335089291
Hartmann,63.2884,135.450655518,2.7137668953
Hell,33.3106,352.2017940195,-32.414922266
Harvey,59.978,213.4857508361,19.3457805713
Hase,82.0754,62.6827524782,-29.3707928147
Hausen,163.237,271.5094646794,-65.1105464157
Hayford,28.1508,183.5510095874,12.6823425828
Hayn,86.2136,83.8674669865,64.5576709225
Healy,37.9794,249.0046890049,32.4954464378
Heaviside,164.463,166.7736125214,-10.4421192437
Hecataeus,133.674,79.6754466566,-22.0612984834
Be?vá? S,15.5767,121.4041929619,-3.3015961719
Hedin,157.379,283.4261655807,2.8745797873
Heinrich,6.86333,344.6348772246,24.8411766774
Heinsius,64.87,342.1751397896,-39.4809874399
Heis,13.6869,328.0189100516,32.4731559091
Helberg,61.9274,257.5413504297,22.6281666384
Helicon,23.7363,336.8917505999,40.4306201519
Helmholtz,110.164,65.3421279557,-68.6422697812
Henderson,43.4904,152.0041963883,4.7616321212
Herodotus,35.8724,310.1647170887,23.2536554456
Hendrix,16.6338,200.028926813,-46.8575865697
Henry,39.0605,302.9868081113,-23.973155159
Henry Frères,41.733,300.9839505448,-23.5221231635
Hyginus,8.69569,6.270012453,7.7597948161
Henyey,68.7432,207.6746650681,12.6985055987
Hypatia,38.818,22.5814016652,-4.2502047213
Heraclitus,85.7359,6.4202418719,-49.3050996405
Ingalls,37.2308,206.6645066996,26.1565238469
Hercules,68.3151,39.2134797895,46.8218966143
Lepaute,16.3579,326.3074647361,-33.3005649896
Herschel,39.089,357.9145741783,-5.685988499
Hesiodus,43.2368,343.5815335499,-29.4195419721
Hertz,82.9433,104.5616559794,13.3227617231
Hill,15.8595,40.8133932056,20.9126057861
Hess,90.4393,174.1867847,-54.4691912598
Hippalus,57.3587,329.5827230073,-24.9185821427
Hevelius,113.869,292.537368468,2.195222421
Hogg,38.3931,121.9575411574,33.5140015199
Heymans,46.4499,215.0607450312,74.7553130384
Heyrovsky,16.6551,264.575729308,-39.5508475914
Hipparchus,143.946,4.913306689,-5.3564797862
Hippocrates,59.2371,213.4604128363,70.2610366508
Hirayama,145.208,93.6295395914,-6.0127322819
Hoffmeister,44.4607,136.837255929,15.0437946602
Hohmann,16.8065,265.7356893547,-17.9159369312
Holden,47.6036,62.5296758905,-19.1873244372
Hommel,113.597,32.9252999993,-54.7382829529
Hooke,34.3471,54.858754973,41.1372650691
Hopmann,87.8404,159.2346134393,-51.0084557574
Kosberg,14.6296,149.6124474773,-20.1868080371
Horrebow,24.9765,319.0687158496,58.8015721232
Hédervári,74.1405,85.6005419227,-81.7719298898
Lacus Veris,382.882,274.091389187,-16.484388334
Hutton,45.168,168.6829037779,37.2234418893
Huxley,3.47977,355.4569516218,20.1969301024
Kimura,27.4424,118.3822124719,-56.8156602385
Kinau,41.8712,14.9353650971,-60.7472512813
King,76.2096,120.4943110787,4.9617378596
Izsak,30.8277,117.5913297122,-23.3212443649
J. Herschel,154.441,318.1413512089,62.3138615163
Nasmyth,78.3746,303.6056625872,-50.4863012593
Ibn Battuta,11.5129,50.4370812953,-6.9516448763
Nassau,75.8006,177.3370235154,-24.9136880573
Ian,1.51213,359.612170563,25.7184448826
Ibn Firnas,88.2915,122.304184898,6.8339832099
Dziewulski Q,28.2274,98.4563371153,20.5463801394
Il'in,12.4229,262.3231915677,-17.8007765405
Ibn Yunus,59.6869,91.1361979018,14.1381899603
Ibn-Rushd,31.0757,21.7132163215,-11.6867597816
Icarus,93.728,186.7414747284,-5.4912020408
Ideler,37.7746,22.2429528537,-49.3197148722
Inghirami,94.5976,291.0529431845,-47.4945806476
Idel'son,59.8164,112.6939335476,-81.3478327529
Innes,42.8303,119.3075028689,27.8498974946
Ioffe,83.9484,230.8447854319,-14.3802024747
Isaev,94.1018,147.490952022,-17.5658947038
Green Q,14.7592,131.84872532,2.3163401037
Isidorus,41.392,33.5008490363,-7.9629411343
Joy,5.11745,6.5586639562,25.0111575371
Jules Verne,145.536,147.2755293885,-34.8456463117
Julienne,1.80129,3.1282002464,26.0576208197
Julius Caesar,84.716,15.2105041368,9.1664619101
Kaiser,53.1491,6.4785649555,-36.4852664535
Jackson,71.3784,196.6814350213,22.0499914927
Kathleen,5.36708,359.1659622332,25.3427110538
Jacobi,66.2776,11.3036892054,-56.8152001791
Jansen,24.2055,28.6413519762,13.552134007
Jansky,73.7749,89.5046966473,8.627876069
Janssen,200.651,40.8220678395,-44.9594806166
Jarvis,41.2231,211.7937530545,-35.1344726404
Jeans,81.1299,91.5133618213,-55.5795269922
Jehan,4.46388,328.1387867109,20.7117148344
Jenkins,37.7655,78.0405395306,0.3716932162
Jenner,73.6635,95.983724483,-42.0099705496
Jerik,0.626459,27.6311924514,18.5279446957
Jomo,7.35565,2.4442968328,24.4056180954
José,1.21685,358.3359814594,-12.6752914946
Joule,97.5238,215.8641053661,27.1509043928
Kane,54.9637,25.8433200004,62.9949325695
Kamerlingh Onnes,70.0305,243.7136845601,14.7186458589
Keldysh,32.7544,43.6466390327,51.2253140776
Kant,30.8507,20.1979340364,-10.6235042085
Kao,34.5408,87.8103153328,-6.7121818444
Kapteyn,48.6542,70.5943659773,-10.7896233181
Kunowsky,18.267,327.4720450915,3.2150906654
Karpinskiy,91.403,166.8013642579,72.6093984452
Katchalsky,32.2985,116.0746183221,5.9060271885
Lacus Somniorum,424.759,30.804637225,37.562162506
Karrer,55.5617,217.7203672867,-52.0644927851
Kasper,12.3886,122.1239474603,8.2990348712
Keeler,158.066,161.7760800974,-9.7798463042
Kepler,29.4895,321.9912748019,8.1209845101
Kekulé,94.2225,221.5338596211,16.3093625637
Natasha,10.9848,328.8368106807,19.9759445293
Kepínski,31.6691,126.7175539954,28.6282277363
Khvol'son,55.8768,111.8709155373,-14.1259244918
Kibal'chich,91.6666,212.8212917844,2.7213102924
Kircher,71.1971,314.5182018156,-67.0075002392
Kidinnu,55.1012,122.9454023994,35.7926368648
Lassell,21.8211,352.0965738499,-15.4866317314
Kies,45.5412,337.3746548061,-26.3071763986
Kuo Shou Ching,33.4836,225.343515042,8.1043503207
Kiess,67.7866,84.11080834,-6.4092410686
Liebig,38.9617,311.7010110241,-24.3541367732
Kirchhoff,24.3804,38.8444306607,30.3018469305
Kirkwood,68.1217,203.3371482483,68.3397541764
Klaproth,121.373,333.738636209,-69.8528843202
Klein,43.474,2.5264204747,-11.9863981672
Klute,77.467,218.2371627967,36.925287028
Kleymenov,55.9751,219.644451384,-32.4775390112
Taylor,36.3532,16.6479007411,-5.2822742244
Knox-Shaw,13.4403,80.1936321707,5.3567268152
Koch,94.7015,150.3305747817,-42.1310631755
Kolhörster,78.7784,244.9884765257,10.7875121483
Konoplev,27.674,235.6298520952,-28.1616468608
Kohlschütter,56.2513,153.9454580346,14.2425711395
Naumann,9.92737,297.9802151119,35.379786826
Komarov,80.4273,152.2480215529,24.5868047138
Lacus Perseverantiae,70.6404,61.9348631041,7.8377176651
Lacus Solitudinis,122.672,103.876351683,-27.523048674
Kondratyuk,97.9708,115.8029281433,-15.3348940384
Tebbutt,33.9923,53.5188507207,9.4590683955
Kopff,40.4887,270.3200375769,-17.3902864727
Lacus Timoris,153.649,332.047760393,-39.421512036
Korolev,423.411,202.5918207924,-4.1912725206
Konstantinov,68.0772,158.3415440754,19.557231219
Kramarov,21.048,261.108206521,-2.2945517432
Kostinskiy,67.9111,118.8534102932,14.433178308
Krieger,22.8693,314.3909273604,29.0236129691
Kovalevskaya,113.709,230.5649658351,30.8612524117
Koval'skiy,44.9741,101.0343518537,-21.8916372265
Kozyrev,59.3532,129.5944158097,-46.6418512582
Krafft,51.1464,287.2784463002,16.5576312089
Kramers,61.5911,232.0207521557,53.2804180709
Krasnov,41.1712,280.1780479233,-29.9334508129
Krasovskiy,61.6748,184.3665382698,3.7901777323
Kreiken,29.3654,84.5521702076,-9.0481070564
Krusenstern,46.4397,5.7578035163,-26.3000450257
La Condamine,37.8273,331.7819679164,53.5370633526
Krylov,49.8288,193.887111157,35.2637736023
Maclear,20.3394,20.1048571982,10.5221363696
Kugler,65.871,104.0993534676,-53.4408646035
Kuiper,6.27611,337.3166566484,-9.7750164777
Kulik,60.4584,205.3713940014,41.9769521503
Lents (Lenz),21.9845,257.700068419,2.7233906397
Kurchatov,110.959,141.7353516512,38.2953066256
Priscilla,1.49864,353.7884123538,-10.9564452109
Kästner,116.075,78.9367175969,-6.9018712151
König,22.856,335.3207815617,-24.2275887334
La Pérouse,80.4024,76.2808926208,-10.6689537685
Maclaurin,54.3316,67.9894326837,-1.923450771
Lacroix,36.074,300.7999837368,-37.9336791384
Lacus Aestatis,86.3872,291.430303792,-14.833825207
Lacus Autumni,195.645,276.827614211,-11.814986123
Leonov,34.043,148.3627837096,19.0651820893
Letronne,117.587,317.5120913928,-10.5006424405
Lacus Doloris,102.902,8.614923409,16.801269388
Lacus Excellentiae,197.739,316.423436391,-35.654830097
Lacus Felicitatis,98.4823,5.358773712,18.519997186
Longomontanus,145.497,338.1206606511,-49.551619898
Louise,0.640676,325.8039085941,28.4866236337
Love,90.077,129.1712134371,-6.3328287739
Littrow,28.5182,31.39411065,21.5037226436
Neander,49.2201,39.8849720189,-31.3527303544
Lacus Mortis,158.782,27.31906904,45.134822936
Leucippus,57.0338,243.5861863588,29.240986332
Leuschner,50.1422,250.9491542768,1.6657469012
Lacus Oblivionis,49.0137,191.4757686134,-20.3880793873
Lacus Odii,72.678,7.2729221296,19.2179738642
Nearch,72.7933,39.0130198501,-58.5806281736
Piccolomini,87.5814,32.1986360799,-29.6998498984
Pickering,15.3972,6.9918068095,-2.8764168177
Pictet,59.949,352.5075810635,-43.5636078454
Lacus Temporis,205.297,56.2052506139,46.7727943033
Lade,58.1094,9.9900724572,-1.3261980299
Lalande,23.5409,351.3532822413,-4.4555847848
Lamb,103.551,100.9417994284,-42.6734766838
Lagalla,88.7764,337.6400634365,-44.4847391819
Lallemand,16.6857,275.7937138833,-14.4007464933
Lagrange,162.213,288.5525545618,-32.6025551347
Lamarck,114.655,289.9422685939,-23.1204908687
Lambert,30.1209,339.0135606831,25.7717443035
Gruithuisen F,4.18635,322.0178533872,36.2711477163
Lampland,63.042,131.5097096119,-31.1678298225
Lamont,83.2336,23.3164327684,5.1381377248
Lansberg,38.7459,333.3727111057,-0.3118437506
Lamé,84.2788,64.5590145776,-14.7552717259
Gruithuisen G,6.01056,315.9851551599,36.5906064466
Lamèch,12.4095,13.1507311977,42.7890187931
Landau,218.147,240.6603440533,42.162858785
Gruithuisen P,9.13379,319.431336326,37.1705708164
Lander,40.0504,131.8067651184,-15.3370954701
Lane,53.7569,132.3647763672,-9.5010209428
Leakey,12.4801,37.4633069991,-3.1895105143
Langemak,104.758,119.4530523597,-9.933609217
Einthoven P,18.4851,108.8073893598,-7.0721090191
Langevin,57.796,162.6912295141,44.1662249145
Langley,59.1697,273.9501261366,51.1662340903
Langmuir,91.5034,231.1050558308,-35.8461229842
Langrenus,131.977,61.0380480311,-8.8603865777
Laue,89.1651,262.9488097394,28.2904445938
Lauritsen,51.2427,96.3089969316,-27.5443144702
Lavoisier,71.0107,278.7469671697,38.169372602
Moltke,6.15496,24.1642223354,-0.5928213427
Lawrence,24.0219,43.2965431526,7.3518752332
Le Gentil,125.384,283.9800518748,-74.2738972571
Le Monnier,68.3954,30.5015105946,26.6559843977
Lindbergh,13.3425,52.9033246532,-5.4123281068
Petermann,76.9486,67.8923029941,74.346829069
Peters,14.6676,29.3921297473,68.0692958001
Leavitt,69.3099,220.1077656324,-44.8560989067
Lee,41.1731,319.2409655,-30.6574057268
Lebedev,121.8,107.8856479567,-46.8039136892
Auzout D,11.6588,62.4277957343,9.3489884509
Lebedinskiy,63.3923,195.1124373943,7.8440023994
Lebesgue,11.3923,88.9747063823,-5.1359848253
Legendre,78.0817,70.0192645938,-28.921970595
Monge,36.6045,47.5443432981,-19.2409522374
Lehmann,53.8476,303.8326482936,-39.9554729171
Lemaître,93.6977,210.0222382974,-61.3619661057
Levi-Civita,108.225,143.1389195845,-23.3437756581
Lewis,40.3158,245.7706594233,-18.5072952708
Lexell,63.7028,355.7349403034,-35.7752608223
Lichtenberg,19.529,292.2838578134,31.8536749172
Ley,81.0458,154.8390629038,42.1055986107
Licetus,75.4178,6.5434724988,-47.18960619
Lilius,61.1774,6.093616139,-54.601791341
Linda,1.10633,326.6244768102,30.6869739469
Lindblad,59.3658,260.7775810751,70.0335902984
Linné,2.22946,11.7993708807,27.746434622
Lindenau,53.0769,24.7742261824,-32.3487819114
Lindsay,32.2302,13.010132571,-6.9975118531
Lippershey,6.74254,349.6190266454,-25.9612928735
Lippmann,160.069,245.6827398208,-55.4273993222
Litke (Lütke),38.1758,123.1229359336,-16.760639914
Lobachevskiy,87.2554,113.0733193571,9.7564662528
Maestlin,6.81904,319.283458056,4.8973916766
Lockyer,35.0759,36.5949870714,-46.2732544039
Loewy,22.4528,327.1477040689,-22.6930532528
Lodygin,56.1122,213.2220208932,-17.4239353209
Einthoven R,13.3732,107.4281791584,-6.0477032933
Lohrmann,31.2526,292.6174337713,-0.4398505835
Lohse,43.3412,60.3078507645,-13.7621006776
Lomonosov,90.6896,98.278576162,27.3500982357
Mairan,39.4923,316.502118368,41.5965414219
Lovelace,57.063,250.4903941096,82.0803597875
Lovell,35.0957,217.5277424337,-36.7418943758
Lowell,62.6484,256.5820714516,-12.9655230813
Lubbock,14.0938,41.7885593498,-3.9859133629
Lubiniezky,42.971,336.1059241262,-17.8816308454
Lucian,6.84749,36.7819562459,14.3412717066
Lucretius,64.6109,238.7561901808,-8.2223641427
Marco Polo,28.2515,357.951566206,15.5233541868
Ludwig,23.2895,97.4529443944,-7.7216256134
Luther,9.28667,24.1502101749,33.196731639
Lyapunov,67.5811,89.3638643066,26.4290244756
Lyell,31.1671,40.5564156186,13.6281725606
Lyman,83.253,162.470006626,-64.958386177
Macrobius,62.7904,45.9702274721,21.2556487273
Lyot,150.6,84.804001589,-50.4657802366
Magelhaens,37.2046,44.0739852171,-11.9757654564
Main,47.4254,10.408527006,80.8694084409
Maginus,155.578,354.0162817319,-50.0336994495
Maksutov,83.8354,191.3470531039,-40.7469686583
Petit,5.04095,63.4615696069,2.3224522721
Malapert,72.3846,11.4030736391,-84.9997663131
Mallet,58.9193,54.0545801012,-45.4128845991
Malyy,41.2902,105.5584123718,22.029430621
Manilius,38.339,9.0736897832,14.4520303247
Manners,15.045,19.9945832309,4.5701129619
Manuel,0.567646,11.3557306733,24.4664684263
Manzinus,95.9714,26.3735810578,-67.5100438379
Maraldi,39.6179,34.7971915056,19.3605508684
Marci,24.4658,192.4278871667,22.2283159943
Marconi,72.8767,145.202463696,-9.4811882151
Mare Anguis,145.986,67.575270145,22.426799376
Mare Ingenii,282.204,164.826818972,-33.24579507
Arago C,3.03421,21.4774718393,3.8879454817
Mare Insularum,511.933,329.359787507,7.791958242
Mare Cognitum,350.009,337.685643539,-10.53081676
Mare Crisium,555.921,59.103747264,16.177371453
Petrov,55.4412,88.175203376,-61.3618494892
Pytheas,18.8082,339.4056721969,20.5669920895
Markov,39.9192,297.1594907357,53.4332857308
Moulton,54.7043,97.5677583454,-60.9081310315
Mohorovi?i?,49.9682,195.1682732453,-18.7304781409
Menelaus,27.1333,15.9294054133,16.2593322935
Moigno,36.8274,28.7951519652,66.2666859873
Murakami,44.5187,219.0296907989,-23.3826147117
Moiseev,61.556,103.2561726096,9.441166933
Moissan,22.4457,137.448555358,4.7707901917
Petrie,32.861,108.465972088,45.1422339061
Mare Tranquillitatis,875.749,30.834624311,8.348715801
Mare Undarum,244.843,68.658947077,7.491193895
Petropavlovskiy,64.065,244.7243243337,36.9242012708
Mare Nubium,714.499,342.712786887,-20.58944222
Mare Orientale,294.155,265.329682237,-19.865549721
Marinus,56.5541,76.5738895591,-39.3759243428
Mariotte,70.2722,220.9360569749,-28.4566981258
Marius,40.0888,309.1645219765,11.896798736
Mary,0.527952,27.3922273712,18.9250569972
McClure,23.9648,50.2369209857,-15.319209025
Mason,33.3329,30.5086566813,42.6995937904
Maunder,53.7978,266.1245406716,-14.5249656041
Montes Teneriffe,111.983,346.8128485896,47.8908000852
Maupertuis,45.4855,332.7170727128,49.6967535903
McAuliffe,19.1128,210.227995317,-33.2432892414
Maurolycus,115.35,13.9200712654,-41.7718673732
Maury,16.5772,39.6913046372,37.1087820609
Michael,3.46381,0.2145938022,25.0493912935
Maxwell,109.241,98.5255609997,29.9048007327
McAdie,41.0026,92.2182183301,2.109698753
Mons Piton,22.5018,359.0772807295,40.7166767169
McDonald,6.9665,339.1164964764,30.3883506634
Menzel,3.43652,36.9424566714,3.4072020188
Mons La Hire,21.7064,334.4946520828,27.6612481704
McKellar,50.1634,189.1381754017,-15.7181157892
Plinius,41.3125,23.6067297789,15.3568511046
McLaughlin,75.2903,267.172307049,47.0081269625
Montes Spitzbergen,59.1866,354.7865233809,34.4723805463
Montes Taurus,166.163,40.3354855737,27.3232367263
McMath,88.5847,193.9082477526,16.6302836917
McNair,32.0166,212.0480915058,-35.930098942
McNally,47.0322,232.3485069141,22.4958870893
Mechnikov,58.8266,211.014881861,-10.4739966897
Mee,134.108,324.8127724447,-43.6253415074
Osman,1.79365,353.7481336828,-10.97822271
Mees,51.5514,263.8197342499,13.5700153381
Meggers,51.1555,122.9411265425,24.3005615535
Meitner,87.2727,113.1040120973,-10.8714852798
Melissa,17.208,121.7776794513,8.1221577661
Mendel,139.651,250.1387213561,-48.8281603062
Mendeleev,325.127,141.1675605561,5.3753641492
Mercator,46.3223,333.889593806,-29.2535018749
Mercurius,64.3023,66.0702936991,46.6634122214
Merrill,56.9912,242.5522206094,74.8300188964
Mersenius,84.4612,310.6638035666,-21.4927861033
Meshcherskiy,65.9445,125.5263926507,12.1061146814
Milichius,12.1898,329.7685856089,10.0058921747
Messala,122.398,60.0591456418,39.307850638
Messier,13.7955,47.6532988842,-1.9038495243
Mons Hadley,26.3956,4.1183283469,26.6948225202
Metius,83.8141,43.3727445095,-40.4244307697
Mädler,27.5806,29.7589562237,-11.0414892083
Meton,124.702,19.6261908779,73.5673377727
Mezentsev,84.5107,230.3638570756,71.7711526848
Michelson,123.143,238.4539813833,6.7246254795
Mons Maraldi,15.8961,35.5012235258,20.3388017587
Mons Moro,13.6806,340.1562920461,-11.8387066779
Mons Penck,37.5899,21.7448303043,-10.0037829698
Mons Pico,24.4192,351.1326983896,45.8247841612
Milankovi?,94.2107,171.3513774839,76.5263257463
Millikan,93.9725,121.5152227342,46.7599388495
Mills,35.6545,155.740872409,8.5447030321
Milne,259.969,112.7820560673,-31.0029501833
Mineur,72.2836,198.2701721625,24.6656353585
Mons Rümker,73.2486,301.6224572688,40.7607248163
Minkowski,107.513,214.1988861477,-56.1291439058
Mitchell,32.1498,20.1709951319,49.7695801919
Mitra,97.0961,205.3485913241,17.7644024073
Abulfeda BA,13.9878,16.7958519578,-14.6917248743
Mutus,76.3348,29.925410396,-63.6479178348
Monira,1.07297,358.2672656155,-12.5431663135
Mons André,10.5167,120.5603236206,5.1827264444
Mons Ardeshir,7.10125,121.0417152646,5.0258954802
Mons Argaeus,61.476,29.0067836163,19.3308686651
Popov,71.3952,99.3759476914,16.9336218008
Müller,23.3998,2.0385568036,-7.639135549
Porter,51.465,349.8171356454,-56.1468032224
Mons Delisle,32.4223,324.2116580968,29.4248947164
Mons Dieter,20.4113,120.2977493695,4.9966969301
Mons Esam,7.92095,35.7056576179,14.6081435896
Mons Ganau,13.4931,120.5888142272,4.79192803
Möbius,48.9582,101.1307527662,15.6323173263
Mösting,24.3774,354.1191551641,-0.7008535758
Mons Hansteen,30.6477,309.7851977145,-12.1948334315
Mons Herodotus,6.76537,307.0643134442,27.501485641
Mons Huygens,41.9678,357.1429029299,19.9188484693
Nagaoka,50.5445,154.0476797372,19.5066454677
Naonobu,32.9597,57.9303305041,-4.7002121689
Posidonius,95.0574,29.9912767966,31.8783172968
Montes Agricola,159.76,305.9284587662,29.0593012577
Montes Archimedes,146.537,354.750213628,25.393880307
Montgolfier,83.7144,199.9183150855,47.0559741669
Moore,52.6646,182.4502085104,37.2515442217
Moretus,114.447,354.0530022403,-70.6346439602
Planté,36.7982,163.2561946383,-10.2181434525
Plummer,75.7015,205.1430740063,-24.6233104477
Reiner,29.8484,305.0170372136,6.9200114082
Plutarch,69.589,79.0518655211,24.1768370469
Poczobutt,212.355,260.7668310882,57.2677644398
Pogson,40.8744,111.1136905933,-42.3785328478
Poinsot,65.11,213.7850229591,78.9019706299
Poisson,41.4021,10.5647833798,-30.3393002902
Polybius,40.8093,25.6273958221,-22.4633854702
Montes Riphaeus,190.118,332.3975324484,-7.4828730222
Morley,13.7116,64.6156964771,-2.8200932013
Morozov,41.0121,127.3263924683,4.6188228363
Morse,72.766,184.7094492524,21.8967481424
Richards,16.7978,140.0949405067,7.7032982434
Palmieri,39.8428,312.2026455482,-28.6407447164
Mouchez,82.7814,333.1754891921,78.3787239635
Necho,36.8652,123.2444527231,-5.2482507719
Moseley,88.889,269.7991823786,20.9543459951
Protagoras,21.0532,7.3406926957,56.0176649483
Neison,51.027,25.0232703094,68.2054649287
Neper,144.318,84.5820113224,8.764886064
Nernst,121.523,265.3638336943,35.5701872341
Wallace,25.7147,351.2508515636,20.2570695641
Neujmin,97.0335,125.1744756092,-26.6795263568
Puiseux,24.9516,320.8130145154,-27.8179271994
Neumayer,84.3806,70.9231478885,-71.1614101533
Heaviside F,13.4491,172.6103339375,-10.7872543616
Newcomb,39.803,43.6665905525,29.7623434788
Nicholson,38.082,274.7893254595,-26.2160146569
Wallach,5.74412,32.2654475806,4.8889495112
Newton,83.851,342.5585896335,-76.5206701347
Nicolai,40.5406,25.8714883542,-42.471043223
Nicollet,14.7259,347.5042096678,-21.9484435196
Nielsen,9.64449,308.2440316511,31.8035208491
Niepce,59.6873,239.8531675285,72.198376177
Nijland,35.4581,134.1681520436,33.194406307
Nikolaev,42.6702,151.2802482178,35.0798514418
Nishina,62.1253,189.2022130988,-44.5739447404
Nobel,50.8664,258.6104624754,14.7329533417
Nobile,79.2723,53.272520928,-85.2751889736
Nobili,41.7895,75.9486012343,0.1660673036
Nonius,70.6102,3.7889008724,-34.9023968807
Polzunov,66.5254,115.0081911689,25.5674599818
Pomortsev,25.5083,66.9104998833,0.7366486391
Poncelet,67.5703,305.428225726,75.9093696835
Pons,39.6971,21.5520369587,-25.4346730601
Pontanus,55.6623,14.3561707448,-28.4222951012
Norman,9.87326,329.6460058756,-11.781446913
Nunn,18.4937,91.1462619546,4.6150762315
Numerov,105.387,197.7997201233,-70.5180387673
Nu?l,60.5788,167.4506034803,32.1935263855
Nöggerath,32.1175,314.1581519893,-48.8200036965
Nöther (Noether),64.7991,245.8232736581,66.3453101747
Oberth,49.5212,154.8380479365,62.49262317
Obruchev,72.2255,162.4297146001,-38.6671038603
Oceanus Procellarum,2592.24,303.322606056,20.6714218933
Oenopides,73.4691,295.7971540373,57.1253424957
Oersted,42.2782,47.2546549002,43.0857222128
Pupin,2.16582,348.9996247305,23.8688045305
Ohm,61.7548,246.224155873,18.3204645761
Ramsden,25.1054,328.1250015481,-32.9563962363
Oken,78.6673,76.0913771946,-43.7556115095
Olbers,73.0172,283.856700416,7.2985747027
Olcott,79.9378,117.7882718546,20.5729842722
Olivier,78.4507,138.4433851155,58.7226691779
Omar Khayyam,68.6393,257.7833760379,58.2097751563
Bailly N,10.9634,296.3196912306,-60.5271479364
Onizuka,26.8828,210.211576675,-36.377338436
Opelt,48.7322,342.3599207102,-16.3155405895
Oppenheimer,201.165,193.9651053377,-35.3186623515
Pettit,36.6699,273.2463679099,-27.5205442933
Oresme,82.0508,169.2235757428,-42.6145126312
Rutherford,15.9751,137.0917428913,10.563704207
Orlov,72.9267,184.9193048478,-25.7685270355
Maskelyne X,3.70831,27.3872914024,1.269037458
Orontius,121.019,356.040142705,-40.3691255323
Osama,0.422284,5.2668110043,18.6089822938
Petzval,93.472,249.1695208822,-62.7289859638
Phillips,104.215,75.6706258462,-26.5745405051
Philolaus,71.4351,327.1155035493,72.2220683308
Sampson,1.82735,343.4686849133,29.577892416
Phocylides,115.18,302.687469236,-52.791753941
Picard,22.3476,54.7240207829,14.5663073797
Osiris,0.956911,27.6458032405,18.6493489411
Piazzi,102.574,291.9912373067,-36.1571478083
Piazzi Smyth,12.9579,356.7568726658,41.9138459754
Ostwald,108.126,121.9477962235,10.2351309312
Stearns,38.9411,162.6047054165,34.6828137968
Rankine,10.4798,71.4938558025,-3.8686533026
Palisa,33.4737,352.8114267678,-9.4667833938
O'Day,70.4056,157.2933549503,-30.4238458964
Sulpicius Gallus,11.605,11.6788486115,19.6261601846
Palitzsch,41.8684,64.3895641391,-28.0239429686
Susan,0.953762,353.6993834789,-10.9981544706
Paneth,60.9161,265.3658325471,62.5963098421
Pallas,49.507,358.3467143098,5.4763961442
Swasey,24.8452,89.6704057487,-5.4574614159
Pontécoulant,91.4045,66.0673013869,-58.7787943404
Palus Epidemiarum,300.384,332.4567074832,-31.995917023
Apianus S,23.9561,8.4740055604,-25.8082182258
Pannekoek,67.5018,140.6937316605,-4.1986598485
Spurr,13.2059,358.7304549122,27.9111539302
Papaleksi,92.0334,163.9473298315,10.1450901804
Heron (Hero) H,17.8819,120.7012191457,0.2403544222
Paracelsus,85.8795,163.4434273117,-22.9226450743
Paraskevopoulos,98.8745,209.6551809803,50.093072961
Schuster P,16.2508,144.4857320596,1.6794779147
Parenago,94.5699,251.0888864316,25.8773648043
Parsons,41.1241,188.8406222472,37.2466643462
Parkhurst,93.0831,103.6934930975,-33.2850799183
Spörer,25.5722,358.2254577744,-4.3025429659
Parrot,70.6593,3.2921150513,-14.5731447485
Walter,1.26214,326.1888445421,28.0443580849
Parry,47.2821,344.2205937845,-7.8834325409
Zinner,4.55674,301.1364648119,26.6411175366
Pascal,108.205,289.3699158261,74.3570485877
Paschen,127.358,219.4720188584,-14.0578558555
Pasteur,232.766,104.9078170026,-11.5769342647
Pawsey,59.9787,145.2939300021,44.2383129154
Regnault,51.3059,272.1195332799,54.0438005005
Pease,40.8395,253.6954194434,12.512015006
Reichenbach,64.8478,47.9545034422,-30.477292359
Patricia,10.0811,0.4984813769,24.9075358083
Epimenides B,10.2175,331.0702519755,-41.6184462934
Patsaev,55.2501,133.5983020262,-16.7738099268
Peek,12.5453,86.9581653892,2.7596835377
Pauli,95.2759,137.3500897921,-44.7587786203
Peirce,18.8596,53.3535921447,18.2641305183
Pavlov,143.053,142.400991415,-28.2841904271
Gagarin M,17.5825,149.172227969,-23.5050772795
Peirescius,61.5345,67.7976044447,-46.4049561327
Pentland,56.448,11.3425092723,-64.5698711569
Perel'man,48.8678,106.0122204136,-24.0521754284
Avogadro D,19.4736,170.2239224478,63.8436054051
Sarabhai,7.37795,21.0004663245,24.7539201759
Perrine,87.414,232.0547323542,42.1112477397
Perepelkin,88.7428,128.8001608529,-9.9891284462
Virtanen,39.6468,176.7367608295,15.6429807369
Perkin,62.4757,184.2730260441,47.017025518
Verne,1.54113,334.622847515,24.9532557674
Petavius,184.062,60.7775898284,-25.3914316187
Pingré,88.431,286.0478443456,-58.6378185759
Pikel'ner,40.959,124.2473474722,-48.368170443
Pilâtre,64.367,273.304930673,-60.1701567831
Pirquet,62.143,139.9253672838,-20.3443147234
Pitatus,100.628,346.4730967549,-29.8815809192
Pizzetti,53.467,119.289145327,-35.063287765
Plana,42.9717,28.2214757053,42.2544239998
Pitiscus,79.847,30.5661329124,-50.6111573832
Atlas A,22.2188,49.5578221189,45.3407252593
Planck,319.459,135.3374301621,-57.2721475801
Plato,100.684,350.617456403,51.6191944838
Priestley,54.8807,108.4724288614,-56.71000505
Alfraganus E,3.8494,19.0047006787,-4.6165409943
Playfair,49.8846,8.4451550332,-23.5604485864
Baillaud B,18.081,32.9106656083,72.9317763101
Poynting,127.548,226.6244516117,17.5016388353
And?l K,3.69052,11.5613658541,-5.8315145134
Prager,53.8958,130.7815027198,-3.9909059266
Schönfeld,24.5719,261.9990928658,44.7601207929
Stewart,13.7683,66.9786182725,2.1499913191
Prinz,46.1285,315.8584562416,25.4878429839
Prandtl,87.5348,141.5415299869,-59.6192857228
Proclus,26.9081,46.8942998641,16.0877530848
Reimarus,47.6168,60.4212704828,-47.6917120495
Promontorium Fresnel,20,4.7472997581,28.6288465022
Proctor,47.6382,354.955978072,-46.4292139785
Promontorium Agarum,62.4622,65.7341651173,13.8716883912
Promontorium Archerusia,11.2128,21.9434220242,16.8043392516
Promontorium Heraclides,50,325.9028087345,40.5986219811
Tralles,44.1612,52.8495658783,28.3180541683
Triesnecker,24.9652,3.5987663372,4.1809639491
Purkyn?,50.2946,94.8606292941,-1.5355011793
Theophrastus,8.03044,39.0570322648,17.4634727004
Steklov,36.6078,254.9495675819,-36.731315863
Pythagoras,144.552,297.024141046,63.6814243294
Quetelet,54.7685,224.6978008816,42.6578095256
Steno,32.2937,161.7772197918,32.6069075665
Rabbi Levi,82.4377,23.456517769,-34.7814659743
Rayet,27.7567,114.5035920017,44.6517160764
Raimond,68.3657,200.3706438,14.7791416222
Recht,19.96,123.9949327876,9.7612866429
Rothmann,41.6667,27.6981334247,-30.8134348968
Raman,10.1703,304.8439519192,26.9586550048
Ramsay,61.283,145.0415977294,-40.0202125689
And?l P,17.5596,12.2021771962,-11.6520163775
Raspletin,45.5195,151.7509677705,-22.4061150652
Ravi,1.62128,358.0332834145,-12.5042799267
Rayleigh,113.769,89.4467356302,29.1194489283
Razumov,75.0793,245.3703493613,38.9498159421
Reinhold,43.2847,337.1375472704,3.2814721063
Repsold,108.654,281.5897373756,51.307180138
Resnik,22.1643,209.1643344024,-34.1502022632
Respighi,17.8829,71.8996529767,2.8611663354
Rhaeticus,44.4274,4.9241405617,0.0317831875
Thiel,35.6743,225.4386208623,40.1709793734
Ritter,29.5245,19.1713053156,1.9580329757
Rheita,70.8109,47.1707679096,-37.1000355444
Riccioli,155.664,285.5844783968,-2.9003644045
Riccius,71.7893,26.4254981418,-37.0249937574
Richardson,162.564,99.8918794446,30.9256968148
Riedel,49.1415,219.9526468934,-48.8880805711
Riemann,117.854,87.1776263205,39.3803632076
Alhazen A,16.1381,74.3035724557,16.1672046395
Ritchey,24.0704,8.4767242808,-11.128504607
Rittenhouse,27.5015,107.0667739353,-74.248175009
Rocco,4.35228,314.9998969692,28.9078130304
Ritz,53.7673,92.3847866684,-15.3700890972
Robert,0.556724,27.4494550124,19.0288058715
Rosa,0.81725,327.6962940049,20.3050499126
Roberts,89.3732,185.7545224537,70.6621474203
Robertson,89.8544,254.6349676849,21.8408089778
Robinson,24.0907,313.9708115488,59.0645094343
Rocca,84.0648,287.1057071253,-12.8876832402
Roche,152.672,136.5413399076,-42.3651933348
Romeo,7.15349,122.6829596483,7.5273908221
Rosenberger,91.6486,43.1488864864,-55.4924261273
Ross,24.4853,21.7374627942,11.6689785612
Rosse,11.4256,34.9809911498,-17.9479472275
Rosseland,67.6567,130.6830601028,-40.8197827706
Rost,46.8462,326.1566119881,-56.4236785041
Rowland,166.117,197.517056276,56.9820683316
Rumford,60.8294,190.1984658255,-28.8112949403
Ruth,3.08279,314.935769445,28.708989867
Runge,38.9819,86.8059917967,-2.4289810827
Russell,103.366,284.4521900759,26.5116475352
Rutherfurd,49.9819,347.7532015863,-61.14583508
Jansky H,11.8372,91.4054378303,7.707096356
Rydberg,48.0303,263.5730098751,-46.4309502254
Abulfeda Q,3.50601,12.223953893,-12.8592044528
Rynin,77.8825,256.2685881413,46.7840960774
Römer,43.7049,36.4050979318,25.4257584913
Röntgen,128.424,268.5755331078,32.879147495
Sabatier,9.60348,79.0071553891,13.1863756303
Sabine,29.7507,20.066037019,1.3768908928
Sacrobosco,97.6685,16.6400733645,-23.7521688496
Saenger,74.5691,102.8023555547,4.4851455464
Agatharchides S,3.05635,329.4111367604,-17.7527178729
Saha,103.341,103.0406633326,-1.6865413439
Samir,1.86464,325.712084145,28.5044075639
Sanford,55.0915,220.7942887109,32.3769098218
Santbech,62.2428,44.0601742728,-20.9882738607
Santos-Dumont,8.79534,4.7546528157,27.794812918
Sarton,71.3348,238.8590794586,49.1203721092
Sasserides,81.739,350.5556214119,-39.2775515333
Saunder,44.3847,8.7178548226,-4.2600954444
Saussure,54.5571,356.1150604056,-43.3775783848
Scaliger,86.3964,109.1445499239,-27.2551120217
Vitello,42.5056,322.4493897491,-30.4193519808
Scheele,4.6907,322.153441859,-9.4484922019
Schaeberle,56.7406,117.7081027136,-26.3251666862
Airy J,3.92596,6.0849533371,-19.0523818222
Scheiner,110.069,332.1908923368,-60.3531525153
Schiaparelli,24.1998,301.179275887,23.3787750401
Schiller,179.362,320.2160181308,-51.7243857165
Schjellerup,62.8232,158.2446526908,69.0377872467
Schlesinger,97.2758,221.0192761207,47.1209188608
Schliemann,77.4013,155.1232382046,-1.9900225317
Schlüter,87.5521,276.6110497842,-5.9334978125
Schmidt,11.1304,18.7806374026,0.9563754431
Schneller,56.873,196.2730004701,41.3352572333
Schröter,36.6671,353.0163450615,2.7384380345
Sinas,11.6732,31.6000906815,8.8511353127
Schrödinger,316.388,132.9252318179,-74.7325573843
Toscanelli,7.05015,312.386419744,27.9590942094
Schomberger,85.8023,24.6912145707,-76.6392324604
Sinus Amoris,189.102,37.2893113656,19.9202874838
Schorr,52.0935,89.796193879,-19.4539398171
Agatharchides R,5.11406,329.1545592854,-18.3601241165
Schubert,51.9449,81.014277205,2.7835847323
Sömmering,27.9654,352.4737294564,0.1926767418
Swift,10.0646,53.4447782121,19.3462582287
Schumacher,61.3125,60.8092350407,42.4209634076
Schwabe,25.4711,45.4807732626,65.1032376853
Schwarzschild,211.421,121.5671768454,70.0801603251
Schuster,100.082,146.4243380194,4.4433379336
Heron (Hero) Y,15.1896,119.6886378953,1.4217371698
Scobee,41.5328,210.3563265633,-31.3580073923
Secchi,22.1347,43.5585032794,2.4038619618
Scoresby,54.9318,14.1334440263,77.7298434802
Scott,107.823,48.5153803106,-82.3532132928
Lohrmann B,13.5732,290.4611798401,-0.7510291216
Seares,99.5024,147.2337798755,73.738157213
Sechenov,63.7975,216.9112966717,-6.9731492847
Seeliger,8.28461,2.9950081281,-2.2154550282
Segers,17.2767,127.5153210284,46.9932622229
Segner,67.8405,311.3247669432,-58.9597123853
Shahinaz,15.9949,122.4234098997,7.5803445442
Seidel,55.3903,152.4703163544,-32.6543287172
Shatalov,24.0462,140.4775356779,24.260884529
Seleucus,45.0143,293.3392309943,21.0908414525
Sherrington,18.803,118.000349585,-11.1281163829
Seneca,47.5723,79.8062298399,26.711096811
Abulfeda H,4.22246,9.5570780172,-13.8351156213
Seyfert,102.626,114.3350218029,29.2636893189
T. Mayer,33.1499,330.8330357759,15.5369957184
Shaler,48.4727,274.7294960028,-32.8918554454
Shapley,24.8246,56.8340550545,9.3543315817
Sharonov,75.1219,173.0994635628,12.3727753537
Sharp,37.6087,319.7834415128,45.7512974492
Shayn,92.9041,172.4159678499,32.5158362015
Sheepshanks,23.6711,17.0385969484,59.2418728911
Shi Shen,46.5186,104.1347989178,75.7846690958
Short,67.9417,352.3160159881,-74.5370221239
Shirakatsi,48.1342,128.5589509096,-12.1836255266
Shuleykin,14.6679,267.3256548749,-27.1061976097
Shoemaker,51.8158,45.9109625475,-88.1370167428
Shternberg (Sternberg),74.3634,243.1814025995,19.3773193505
Shuckburgh,37.728,52.7127452676,42.6480818879
Siedentopf,62.7037,135.084075545,22.0475285338
Sikorsky,97.668,103.6462307759,-65.8870452423
Sierpinski,66.9428,154.8096116125,-26.9348635025
Silberschlag,12.5607,12.5290983598,6.2065694793
Simpelius,68.8889,14.7429900492,-72.6125176201
Apianus A,13.1132,6.516992189,-25.6995826067
Sumner,52.8693,108.7620642765,37.6175897227
Apollonius J,11.6994,57.48424956,4.6272987478
Sundman,41.0375,268.3066830717,10.7554139146
Sinus Asperitatis,219.139,27.4884613508,-5.4118979236
Sinus Concordiae,159.027,42.4723392721,10.9789636456
Sinus Fidei,70.6993,2.0379110872,17.9920639419
Fauth H,3.75754,343.7774591893,4.7825666036
Smoluchowski,84.2635,263.0923921979,60.2218735438
Snellius,85.984,55.7048492786,-29.333154193
Sniadecki,41.1301,191.159284503,-22.2873359202
Soddy,40.7912,121.7652904582,0.4482979784
Sinus Honoris,111.609,17.8657893814,11.719547651
Sinus Iridum,249.29,328.3347179771,45.0101000311
Sirsalis,44.1727,299.4934971122,-12.4922245731
Sisakyan,35.5987,109.1275074643,41.073829998
Timocharis,34.1418,346.8998165784,26.7172323133
Tisserand,34.6309,48.1666493902,21.4131296942
Sita,1.59484,120.7002929891,4.6132709313
Tiselius,53.7497,176.7030951118,6.892806485
Smith,32.8661,208.9923130887,-31.7877568443
Sklodowska,125.551,96.1496423018,-18.0351703974
Smithson,6.04463,53.6375227004,2.3822538989
Somerville,17.0833,64.961075601,-8.3319016363
Slipher,74.646,160.2683001836,49.2789850483
Slocum,12.152,89.0746218085,-3.1539802669
Sommerfeld,150.886,198.4550322512,64.8297795033
Soraya,1.90232,358.3657921091,-12.8652400685
Sosigenes,16.9871,17.5955359502,8.7000259564
Spencer Jones,88.1919,165.8397026492,13.0588215039
South,119.036,309.0585092347,57.5807375375
Spallanzani,30.8604,24.7276511134,-46.3834974948
St. John,66.7417,149.9823226865,10.0716160432
Talbot,12.364,85.2971132563,-2.4744562341
Stadius,68.4813,346.2263447596,10.475797567
Stark,47.7197,134.5900078979,-25.4263689464
Stebbins,129.742,217.359359082,64.3626965913
Stefan,112.184,251.2255785598,46.3319041869
Stein,30.7223,179.1068487469,6.995176631
Steinheil,63.279,46.6562384077,-48.7090500203
Gambart S,2.39943,346.7599579862,-0.0545694303
Sternfeld,109.802,217.7326904737,-19.7506353753
Stevinus,71.5378,54.1371622811,-32.490217034
Stetson,63.1239,241.804433854,-39.5792558495
Abulfeda J,4.06904,10.0326988293,-15.4861683772
Stiborius,43.7568,31.9908472838,-34.4929651271
Stokes,53.8525,271.8940596224,52.3638634802
Stoletov,42.4316,204.4983708622,44.8207319613
Strabo,54.7216,54.4249037993,61.9381786036
Stoney,47.5111,203.6215034414,-55.575486003
Amici T,38.0635,185.9251932767,-9.9142451144
Turner,11.2167,346.7592158473,-1.3960980333
Stratton,69.7633,164.7020815532,-5.6035782192
Street,58.517,349.2636361468,-46.5783697526
Struve,164.338,283.347673863,23.4131557206
Strömgren,62.1745,227.6322847955,-21.7398110434
Stöfler,129.874,5.9265097627,-41.2416396507
Subbotin,71.6626,135.7051838798,-29.324935639
Sverdrup,32.8267,206.6125354319,-88.3208982977
Störmer,68.6248,146.6484528764,57.1387257084
Suess,8.38565,312.2825873669,4.3577800369
Swann,42.1822,112.5212112156,51.9571047655
Sylvester,59.2774,278.7818760472,82.6492382194
Szilard,127.224,105.7832192827,33.7051418521
Taruntius,57.3159,46.5425558515,5.5021935156
Tacchini,42.5771,85.8244651667,5.0842982772
Vitruvius,30.9443,31.2796802476,17.6626939008
Tacitus,39.8059,18.9494748581,-16.204945974
Tacquet,6.42755,19.2026297731,16.6411768598
Von Zeipel,83.4078,218.0745702751,42.1924105498
Flamsteed T,23.0955,308.2761037718,-3.1399977757
Tamm,40.5429,146.3816210706,-4.3201082888
Tannerus,28.0682,21.9220358537,-56.4375540773
Teisserenc,62.3085,223.7248475232,31.9628675432
Tempel,43.1907,11.8573632254,3.7612029768
Ten Bruggencate,59.9511,134.6648522344,-9.5764981972
Viviani,26.9442,117.1518469465,5.1622195277
Tereshkova,31.3314,143.8439469956,28.2106852995
Tesla,41.1493,124.7251383007,38.3641329464
Thales,30.7471,50.2674561471,61.7351485584
Theaetetus,24.5931,6.0554048525,37.0106123233
Stratton Q,12.6397,163.9056621237,-6.2050068037
Thebit,54.6375,355.9842628062,-22.011143348
Theiler,8.27896,82.8500089054,13.3631555281
Theon Junior,17.615,15.7930342485,-2.4094082133
Theon Senior,18.0189,15.4191965773,-0.8143125323
Theophilus,98.5919,26.2847149721,-11.4524451006
Thiessen,66.391,190.4958789809,74.8576131727
Brenner E,14.2611,40.5073539871,-38.9676082661
Thomson,117.253,166.0417353295,-32.318284774
Boss F,30.492,89.0886246234,54.1747618706
Tikhov,83.9652,172.2934634538,61.6625905812
Alfraganus F,8.64237,20.8416670112,-3.5363822524
Warner,34.5079,87.3483805562,-3.981445492
Tiling,38.23,226.8888665754,-52.8549156984
Timiryazev,52.1549,212.8532893928,-5.0866227448
Titius,68.4188,100.663395427,-26.747531026
Titov,29.6064,150.2852007483,28.5505169339
Tolansky,13.0279,344.0177557274,-9.5185615388
Torricelli,30.868,28.4036551191,-4.7196638101
Trouvelot,8.50299,5.7946838882,49.3708154287
Trumpler,76.1677,167.1350682282,29.326405553
Tsander (Zander),159.945,210.3068792188,5.3935240613
Tseraskiy (Ceraski),65.5916,142.6354945726,-48.6598937438
Tsiolkovskiy,184.389,128.971538905,-20.3788887071
Tyndall,20.943,117.6442104528,-35.2009452178
Tsinger (Zinger),44.2149,175.7100396905,56.5362703017
Tsu Chung-Chi,28.5314,145.159324106,17.1646858896
Tycho,85.2938,348.7846508413,-43.2958059491
Ukert,21.707,1.3660097746,7.7083613931
Ulugh Beigh,57.0384,278.0434631289,32.6682406016
Urey,39.2939,87.4286024586,27.9335022334
Valier,65.0605,174.2642520306,6.6548445555
van Albada,22.9241,64.354504795,9.3606981663
Van Biesbroeck,9.0809,314.4127601545,28.7663528204
Van den Bergh,43.4159,200.7919226367,30.9095921765
van den Bos,25.1834,145.9536541512,-5.2602321942
Van der Waals,113.366,119.9805976281,-43.5564488953
Barocius K,13.5572,19.6289975572,-45.2221730151
Van Gent,44.372,160.2707303935,15.4217128796
Albategnius J,5.96768,6.1916382332,-11.1409808082
Virchow,18.8284,83.7658082496,9.8788533025
Van Maanen,46.4248,128.1775806628,36.031934244
van Rhijn,46.1566,146.3678162871,52.4668257958
Van Vleck,33.4815,78.2014788897,-1.7738217916
Van Wijk,31.0604,119.0564927081,-62.4955379104
van't Hoff,107.3,227.317752834,61.7493234444
Vasco da Gama,93.5165,276.0613813443,13.7807204239
Vashakidze,44.9933,93.0137279709,43.6533054712
Vega,73.5063,63.265940972,-45.4060858228
Vernadskiy,91.9694,130.4256478284,23.1138700384
Vavilov,98.2171,221.2269177049,-0.8701164797
Agrippa F,5.346,11.3697446432,4.3012124903
Vendelinus,141.211,61.5456106031,-16.4576306853
Ariadaeus D,3.91578,17.0252423921,4.8768218688
Vening Meinesz,88.6919,162.5078222985,-0.1019956708
Very,4.65488,25.3480459425,25.6227613361
Ventris,100.736,157.9668724369,-4.7736498283
Vera,2.26617,316.2872316547,26.3270278802
Vesalius,64.6462,114.7936201123,-3.2312493117
Vestine,97.8084,93.6785123012,33.8709588733
Vetchinkin,94.2899,131.0750746271,9.7685025598
Vil'ev,45.8255,144.3923530315,-5.75605548
Vieta,87.1619,303.4731460201,-29.3106311473
Archimedes Y,2.20124,350.5026111883,29.9709430966
Vlacq,89.2075,38.6902230997,-53.3893850602
Ball F,11.3781,351.5106261271,-36.9458718437
Vogel,26.3046,5.8306839436,-15.1071320223
Volkov,40.8411,131.6652211345,-13.6189271609
Volta,117.147,275.2343775363,53.900474079
Amici R,34.7682,184.6784510676,-11.5041001477
Volterra,55.0963,131.6432413736,56.5540654592
Brenner F,13.7184,37.0318778583,-40.7176219363
von Behring,37.6458,71.7222467523,-7.7495635826
von Békésy,96.2466,126.73389627,51.9230372816
Aitken G,6.04762,173.9942008217,-16.709819841
von Braun,61.8277,281.9155261544,41.0431153394
Väisälä,8.12311,312.1024585136,25.9025461161
Von der Pahlen,53.8861,226.9905502437,-24.8361307538
Voskresenskiy,49.3735,271.8798760352,27.9058603351
Aitken N,7.14643,172.7386142229,-17.6311070239
Von Neumann,74.8259,153.2494074818,40.2845891584
Walker,32.9372,198.0789562084,-25.8189510687
Wan-Hoo (Van-Gu),53.2795,221.0937879335,-9.9632397233
Alfraganus G,5.73791,21.2324994277,-2.6720729545
Abenezra D,7.25231,9.6488784678,-21.7586806328
Waterman,74.9083,128.1769046068,-25.7020986082
Wargentin,84.6889,299.5614004636,-49.5313027017
Alfraganus K,2.9455,19.5373425365,-5.2539056357
Watts,15.5506,46.3078981886,8.844293184
Wichmann,9.77162,321.8703174936,-7.5359170833
Watson,59.4267,235.9531296683,-62.5928942491
Webb,21.4122,59.9993116496,-0.9819064614
Watt,66.5429,48.4772693736,-49.5972262693
Weierstrass,31.3213,77.1472094998,-1.2579890839
Weber,43.9451,236.2068173786,50.0617936207
Hume Z,14.2152,90.4159657303,-3.6085258239
Wegener,95.7814,246.18927141,45.2055242393
Weigel,34.8469,320.6638588202,-58.3850388166
Weinek,32.0099,37.0614315962,-27.5650516866
Weiss,66.5551,340.4126908849,-31.7618376118
Werner,70.5907,3.2926858039,-28.0262730107
Wexler,52.4441,90.7106202049,-68.8843093588
Almanon R,3.51256,15.8807746414,-18.1747280001
Weyl,122.822,239.4658744526,15.9695800209
Whewell,13.0458,13.7337540099,4.1603990721
White,42.3377,200.9646043882,-44.7953758469
Widmannstätten,52.8825,85.4335061922,-6.0928840893
Wiechert,40.823,164.7009651823,-84.0333559842
Wiener,113.388,146.5136642083,40.9020856451
Wildt,12.3083,75.8279841856,9.024003068
Wilhelm,100.827,339.0594150502,-43.2126854415
Albategnius P,4.01048,4.4869129656,-13.0161376848
Wilkins,59.44,19.5767474785,-29.5801066752
Fourier G,10.4892,308.1598907002,-29.3972488572
Williams,36.3575,37.3056002273,42.0203067215
Wilsing,66.7962,204.9454210064,-20.9706201551
Wilson,66.5731,317.1743519979,-69.3285602073
Winkler,22.849,181.1916980959,42.2284514488
Winlock,63.9294,254.0759129896,35.3970683843
Winthrop,17.2506,315.5400443812,-10.7601032442
Wolf,25.745,343.3741744924,-22.7856451889
Wollaston,9.64319,313.0207055237,30.5992744216
Woltjer,44.5019,200.1703649182,44.8717377443
Wright,40.165,273.2565887227,-31.5478541002
Wood,84.1522,238.1745518736,43.6620731266
Alfraganus H,11.9985,19.1600551732,-4.3637652839
Wrottesley,58.3834,56.6192766296,-23.89643115
Wróblewski,21.7846,152.7954554671,-24.0023313513
Wurzelbauer,86.7687,343.9435761107,-34.0408714794
Wöhler,28.0711,31.3530579562,-38.2518446824
Wyld,103.402,98.1009351864,-1.4160658878
Yerkes,34.9369,51.6974775238,14.6039370715
Xenophanes,117.572,277.9941499462,57.4888968246
Xenophon,25.5015,122.0492916914,-22.7937030587
Yablochkov,101.487,127.5757614205,60.775786764
Yakovkin,35.922,281.0711848627,-54.4180134372
Yamamoto,77.4591,161.8700183846,58.1593311237
Yangel',7.87297,4.6877635281,16.9565388458
Young,71.4446,50.9762870775,-41.5418857755
Zagut,78.919,21.8893255019,-31.9411863332
Zach,68.5393,5.245450402,-60.9182582244
Zanstra,39.4985,124.6897019118,2.9298881118
Zelinskiy,53.952,166.8638262099,-28.7385147753
Fra Mauro J,3.2788,341.3520227515,-2.6170894959
Zeno,66.776,72.9822079537,45.1487572436
And?l C,3.0114,11.1525909824,-9.0095297967
Agatharchides F,5.89164,328.1426452839,-20.2575999707
Zernike,50.6754,168.4017615085,18.3379128165
Abenezra G,4.92428,11.0016430034,-20.532653647
Zhiritskiy,33.3553,120.2590583332,-24.8383422569
Zhukovskiy,82.0729,192.7234426903,7.5519098378
Zucchius,63.1795,309.3516222619,-61.3822220023
Zsigmondy,66.8843,254.7009462734,59.5150901114
Abenezra J,4.25785,10.6862963028,-19.9173392035
Zupus,35.2924,307.6256899724,-17.1782633695
Zähringer,11.1885,40.2137403997,5.5099334463
Maunder A,15.4847,269.3791421021,-3.2846119804
Zwicky,126.063,167.6442573613,-16.1746425344
Zöllner,47.6943,18.8992762658,-7.9667532464
?afa?ík,31.4212,176.7038049471,10.4390293215
Abbe H,25.1268,177.5841326263,-58.4449335493
Abbe K,26.1044,176.857880741,-59.815855736
Abbe M,28.6143,175.2393689109,-61.7461930953
Abel A,27.8334,85.7973049022,-36.3141134226
Abel B,41.5459,82.5954239138,-36.7202387425
Abel C,36.8427,81.4093854575,-36.1273200682
Abel D,27.8972,86.4543292023,-37.6716363962
Abel E,13.998,84.4354107648,-37.5354434426
Abel J,18.7579,79.8713500792,-36.2027265333
Abel K,9.94431,77.4576347982,-34.691545372
Abel L,54.1297,82.3945914806,-34.5525362125
Abenezra A,22.1887,10.4422774826,-22.7915378865
Abel M,91.0059,83.5217931161,-32.3763173387
Alfraganus M,3.15668,19.5643055639,-5.6571225244
Abenezra B,13.7665,10.062466545,-20.8177767524
Abenezra C,43.6924,11.0906056917,-21.366641956
Abenezra E,14.1057,9.4044427791,-21.4636419789
Abenezra F,6.30466,10.336472497,-21.5800415029
Almanon B,23.5956,15.2613107761,-18.3343456521
Almanon C,15.6168,15.9798279537,-16.1631183855
Anaximander S,7.20851,306.4022248728,68.3547032246
Anaximander T,7.01141,307.7292608224,67.2965321901
Anaximander U,7.5434,311.4989399691,64.1381436487
Anaximenes B,8.34208,321.9374643584,68.9393957914
Abenezra H,4.72432,12.7110304155,-21.0864967696
Abenezra P,39.2686,9.8496441975,-20.0161786867
Abul Wáfa A,14.9789,116.85935479,1.3971299415
Abul Wáfa Q,31.0363,115.8836591801,0.1436792628
Abulfeda A,13.2578,10.7533255853,-16.4302514741
Abulfeda B,15.4917,16.3704788296,-14.5071848466
Hermann S,3.90467,304.3912739758,0.9448847363
Abulfeda C,16.4257,10.828978211,-12.7929660748
Abulfeda D,19.6813,9.4612195901,-13.247420707
Abulfeda E,5.55333,10.1361512722,-16.7613124866
Abulfeda F,17.473,13.0659479838,-16.1861550986
Aliacensis B,15.8127,3.2034402196,-31.4314420218
Aliacensis C,7.93128,5.4197567372,-32.7000071977
Aliacensis D,9.66792,6.8197609815,-33.1853515579
Agrippa G,13.2366,6.159211226,3.9103178875
Abulfeda G,6.30909,8.9366936091,-13.102075058
Abulfeda K,9.93299,10.5799866081,-14.9203173723
Abulfeda L,4.9467,10.6716640189,-14.0868637622
Abulfeda M,10.0538,12.062296137,-16.2349958933
Abulfeda N,13.0717,12.2003549639,-15.1440099257
Abulfeda O,6.60044,11.1584180062,-15.4682076771
Abulfeda P,4.58801,11.5448440635,-15.497304942
Abulfeda R,6.33941,12.9677897801,-12.7855447303
Abulfeda S,5.27872,13.2978953204,-12.2840525943
Abulfeda T,6.15623,13.7137565029,-14.8581566309
Abulfeda U,5.81764,13.7953420677,-12.9719283176
Abulfeda W,5.41833,13.8472295858,-12.551626898
Abulfeda X,5.80274,13.994170563,-15.0146812509
Abulfeda Y,4.62531,14.052462581,-12.7567106012
Hevelius B,13.496,291.0249214001,1.3560321729
Abulfeda Z,5.65547,15.1775567308,-14.7296101716
Alphonsus Y,2.60004,358.0816524636,-14.7059678142
Fontana C,13.4518,302.8090499312,-12.8592425471
Alter K,21.6367,253.8112007777,16.2175379749
Alter W,51.4701,250.590968479,20.3820972692
Amici M,107.912,187.9778484296,-11.8070380901
Amici N,37.6272,187.4604756889,-11.8843343703
Adams C,11.1239,65.5391774026,-32.3514548911
Adams D,46.2634,71.4504495507,-32.4074308053
Adams M,25.2323,69.3324910134,-34.7329894491
Adams P,25.4311,70.9095130135,-35.1451933197
