name,diameter,center_lon,center_lat
Sinus Lunicus,119.17,358.14,32.36
Marco Polo P,28.06,359.68,16.96
Vallis Krishna,2.89,11.26,24.50
Rima Sung-Mei,3.87,11.28,24.58
Rima Siegfried,13.95,103.00,-25.82
Rimae Sosigenes,130,18.71,8.08
Montanari,77.05,339.24,-45.82
Zeeman,186.55,224.93,-75.06
Bürg,41.04,28.20,45.07
Carlos,4.66,2.28,24.90
C. Herschel,13.70,328.70,34.48
Guericke S,10.18,346.60,-10.35
Calippus,34.03,10.71,38.92
Carol,6.25,122.36,8.47
Daniell,28.20,31.16,35.42
De Vico,22.13,299.68,-19.71
Dorsa Harker,213.14,63.65,13.78
Dorsa Cato,128.63,47.70,0.21
Eudoxus,70.15,16.22,44.26
Ewen,2.60,121.46,7.69
Fedorov,6.07,322.95,28.22
Florensky,69.03,131.85,25.45
Franklin,55.92,47.63,38.72
Freud,2.84,307.60,25.79
Gagarin,261.83,149.35,-19.65
Harding,22.57,288.34,43.54
Hermite,108.63,266.68,86.16
Harkhebi,337.13,98.74,40.87
Heron (Hero),28.10,119.87,0.65
Ivan,3.84,316.74,26.85
Hertzsprung,536.37,231.34,1.36
Hind,28.50,7.30,-7.91
Ina,2.98,5.30,18.65
Isis,0.60,27.48,18.95
Joliot,172.79,93.38,25.78
Kearons,27.99,247.08,-11.58
Karima,3.04,102.98,-25.93
Kira,6.80,132.83,-17.70
Kirch,11.70,354.37,39.26
Lacus Spei,76.67,65.20,43.46
Lacchini,57.94,252.17,41.29
Kundt,10.30,348.43,-11.56
Mach,174.96,210.76,18.12
Lacus Bonitatis,122.10,44.31,23.18
Lorentz,378.42,262.81,34.58
Lacus Gaudii,88.53,12.27,16.33
Lacus Hiemalis,48.04,13.97,15.00
Lacus Lenitatis,78.25,12.05,14.31
Lacus Luxuriae,50.61,175.50,19.40
Le Verrier,20.52,339.39,40.32
Mons Ampère,29.95,356.29,19.32
Mons Dilip,1.36,120.86,5.58
Nansen,116.9,95.38,81.17
MacMillan,6.87,352.15,24.20
Lundmark,103.44,152.55,-38.86
Mandel'shtam,181.89,162.38,5.69
Mare Australe,996.84,91.98,-47.77
Mare Spumans,143.13,65.30,1.30
Marth,6.53,330.64,-31.15
Mons Gruithuisen Delta,27.24,320.41,36.06
Mons Gruithuisen Gamma,19.65,319.27,36.55
Mons Usov,13.22,63.26,11.90
Mons Vinogradov,28.73,327.48,22.34
Montes Haemus,384.66,12.03,17.10
Montes Harbinger,92.69,318.70,26.89
Montes Pyrenaeus,251.33,41.50,-14.04
Poincaré,345.98,163.99,-56.86
Palus Somni,163.45,44.72,13.68
Promontorium Deville,16.55,1.13,43.30
Promontorium Agassiz,18.83,1.76,42.39
Stella,0.41,29.75,19.91
Reiner Gamma,73.44,301.04,7.38
Sinus Aestuum,316.49,351.66,12.09
Schickard,212.18,304.89,-44.37
Sinus Roris,195.04,309.14,50.26
Sinus Successus,126.65,58.51,1.12
Apollonius L,10.12,54.56,6.47
Taizo,8.18,2.19,24.70
Tikhomirov,86.42,161.33,24.19
Van de Graaff,240.46,172.00,-27.04
Vertregt,172.75,171.12,-19.29
Adams B,31.32,65.70,-31.54
Al-Khwarizmi G,102.83,107.34,6.75
Alden E,26.36,112.80,-23.41
Alexander K,3.95,19.34,40.52
Aliacensis K,5.64,6.25,-31.42
Hayford P,20.90,182.26,11.00
Fourier P,9.61,304.92,-31.11
Bridgman C,40.43,140.40,46.56
Maskelyne Y,4.27,28.16,1.72
Avicenna E,25.64,268.74,40.19
Barbier K,13.24,159.20,-26.28
Barocius C,35.84,17.47,-43.10
Bayer S,15.43,323.55,-52.32
Birkhoff M,25.32,214.93,54.50
Bolyai W,53.02,124.41,-32.04
Boscovich P,64.82,10.30,11.46
Briggs A,25.13,286.22,27.12
Brown E,23.18,342.37,-46.85
Buch E,8.31,16.50,-38.97
Bullialdus G,3.39,336.29,-23.27
Bullialdus H,4.37,340.63,-22.75
Bunsen B,21.48,271.97,44.10
Buys-Ballot H,24.03,179.60,19.52
Byrgius S,45.93,298.22,-26.06
Calippus A,15.71,7.87,37.05
Calippus C,37.69,9.15,39.43
Cannon E,25.86,78.99,19.26
Capuanus P,68.51,331.40,-35.44
Cassini A,16.75,4.77,40.51
Cassini W,5.46,4.25,42.34
Clairaut F,31.18,14.35,-45.77
Condorcet E,8.03,68.16,11.34
Daguerre K,5.43,35.78,-12.24
de Gasparis A,38.40,308.62,-26.73
De Vico A,34.08,296.38,-18.74
Delambre F,4.24,19.24,-1.06
Douglass X,24.18,235.91,38.05
Drebbel P,4.87,308.06,-39.72
Dubyago X,8.40,73.03,6.49
Egede E,3.61,10.43,49.73
Evershed S,47.23,197.16,34.50
Eratosthenes Z,0.57,345.90,13.74
Flammarion Y,2.30,356.80,-3.73
Flamsteed X,2.82,312.60,-2.29
Foster H,27.37,220.42,23.01
Fourier K,13.14,305.64,-30.03
Hevelius E,8.80,294.21,2.95
Fracastorius W,6.64,35.68,-22.69
Franklin H,5.15,43.74,37.12
Fraunhofer A,29.17,61.61,-39.58
Gauss A,20.70,82.76,36.53
Furnerius V,59.18,65.49,-35.71
Furnerius F,52.05,64.12,-36.10
Galilaei G,0.80,292.74,12.65
Galilaei S,2.72,295.22,15.46
Ganskiy (Hansky) F,8.87,98.98,-9.65
Gassendi L,5.32,318.21,-20.39
Hermann L,2.81,300.77,2.43
Gaudibert C,8.03,37.79,-11.56
Gay-Lussac H,5.01,336.66,13.41
Geminus G,14.83,48.57,30.79
Gerard Q Outer,192.48,275.45,46.51
Guericke J,6.99,346.57,-10.61
Halley K,4.45,5.81,-8.56
Hercules E,9.98,38.69,45.79
Hell Q,3.74,355.53,-32.99
Herigonius G,3.16,327.54,-15.27
Herodotus E,36.55,308.47,29.34
Herodotus N,4.32,309.88,23.64
Jules Verne Y,22.01,146.35,-31.44
Herschel J,4.84,355.71,-6.42
Horrebow G,7.06,318.15,59.82
Isidorus V,3.85,30.81,-8.88
Hyginus B,4.84,5.07,7.60
Lacroix E,20.33,296.97,-39.97
Hyginus F,3.80,8.60,7.99
Hyginus H,3.42,7.00,5.94
Ingalls Z,25.84,206.52,30.09
Janssen R,22.90,38.70,-48.28
Jacobi Q,3.92,14.02,-55.84
Jansen G,5.56,26.02,9.30
Jansky D,23.02,91.25,9.55
Lacroix R,19.14,299.77,-34.43
Janssen Q,4.94,39.36,-46.34
Kant N,9.05,19.71,-9.91
Rheita E,67.72,48.91,-34.23
Kapteyn Z,6.65,72.56,-11.20
Kästner G,95.66,79.34,-3.67
Kelvin A,7.36,328.42,-27.48
Rocca Q,58.50,290.86,-15.29
Kirch F,4.05,353.95,38.00
Kinau P,4.95,17.36,-61.42
Krusenstern A,4.89,5.80,-26.97
Kugler U,35.39,101.73,-53.59
Lacroix G,48.76,300.75,-36.61
Lacroix J,20.12,300.57,-38.37
Lade X,2.93,11.03,-1.71
Lansberg B,8.99,331.86,-2.49
Lansberg L,4.10,333.59,-3.55
Lavoisier A,28.51,286.73,36.97
Lavoisier L,6.41,285.02,39.73
Lichtenberg H,4.18,301.09,31.51
Lick G,4.77,50.92,10.07
Lippershey T,4.93,348.86,-25.30
Longomontanus E,6.16,341.89,-51.34
Lubbock M,22.15,38.69,-0.40
Maskelyne J,3.68,32.62,3.13
Lyell C,4.14,39.39,15.14
Maclear A,4.11,18.00,11.30
Seeliger T,3.32,4.30,-2.20
Maginus Q,9.23,357.67,-50.85
Marco Polo G,4.42,358.06,16.72
Marius J,2.98,313.09,10.45
Marius Y,2.52,309.22,9.77
Marth K,3.02,331.22,-29.96
Maskelyne B,8.34,28.96,1.97
Maskelyne G,5.84,26.69,2.29
Maupertuis B,6.07,333.20,51.37
Maurolycus P,3.93,12.69,-38.12
Maury K,5.20,41.07,39.47
Mercator E,5.32,333.14,-30.10
Mercurius D,69.47,69.00,46.12
Short B,89.83,354.82,-75.89
Milichius A,8.22,327.93,9.25
Miller E,5.86,2.75,-38.92
Mösting L,3.01,356.56,-0.68
Mutus J,7.15,23.28,-62.81
Neander M,8.60,37.66,-34.85
Nearch M,7.50,35.14,-58.61
Lev,0.06,62.20,12.69
Nonius F,6.98,3.73,-35.92
Opelt E,7.38,342.09,-17.04
Orontius B,8.74,356.83,-39.96
Parry L,6.31,345.30,-6.31
Piazzi C,28.04,297.24,-37.15
Piazzi Smyth W,3.00,358.13,42.25
Pickering C,3.32,6.15,-1.54
Plinius A,3.45,24.16,12.98
Pons N,5.75,22.92,-25.95
Ptolemaeus L,3.17,355.98,-8.84
Ptolemaeus Y,5.97,0.70,-9.36
Puiseux B,3.37,321.02,-25.70
Pytheas F,3.89,340.85,16.55
Rabbi Levi N,8.85,23.58,-36.51
Réaumur C,4.26,0.20,-3.49
?afa?ík A,21.23,176.97,12.50
Reiner M,2.99,303.75,8.62
Reiner S,3.38,309.16,2.25
Rocca M,44.13,289.11,-14.57
Römer W,6.06,40.41,26.43
Saunder T,4.91,10.38,-4.06
Rümker E,6.78,302.86,38.63
Sabine C,2.83,22.92,1.02
Santbech D,7.43,45.13,-21.13
Santbech K,9.29,43.11,-19.22
Santbech V,6.81,39.33,-24.67
Saunder S,3.16,9.74,-2.37
Saussure B,3.95,355.98,-42.26
Scheiner S,6.77,334.66,-58.38
Schickard L,8.58,300.19,-44.12
Secchi K,6.00,45.50,-0.17
Wessex Cleft,3.49,30.89,20.34
Plaskett,114.34,176.71,81.63
Tacitus M,5.84,21.47,-13.96
Rozhdestvenskiy,181.15,202.10,84.99
Von Kármán,186.34,176.24,-44.45
Sharp-Apollo,0.01,336.56,-3.02
Webb N,5.86,63.62,-0.32
W. Bond,170.53,3.51,65.40
Catena Brigitte,7.65,27.49,18.49
Middle Crescent,0.36,336.56,-3.00
Surveyor,0.20,336.57,-3.00
Triplet,0.32,342.53,-3.64
Cone,0.33,342.56,-3.62
Dorsum Oppel,297.61,52.08,19.31
Dorsum Owen,33.46,11.09,25.13
Dorsum Scilla,107.52,300.00,32.34
Rima Agatharchides,54.25,331.43,-20.37
Dorsa Smirnov,221.78,25.52,26.40
Dorsum Thera,7.24,328.57,24.40
Montes Jura,420.79,323.88,47.49
Montes Secchi,52.46,43.17,2.71
Planitia Descensus,0,295.84,7.18
Rima Archytas,90.18,2.99,53.62
Vallis Rheita,509.07,51.65,-42.51
Dorsa Sorby,76.02,13.69,18.64
Vallis Schrödinger,301.71,104.88,-66.51
Dorsa Stille,66.32,341.14,26.90
Dorsum Buckland,369.12,14.29,19.43
Rima Réaumur,30.66,2.46,-2.83
Dorsum Cushman,85.65,49.19,1.41
Dorsum Gast,64.86,8.70,24.37
Dorsa Tetyaev,187.52,64.06,20.02
Dorsum Cayeux,95.13,51.22,0.76
Dorsum Cloos,103.08,90.40,1.14
Rima Carmen,15.01,29.29,19.95
Dorsum Heim,146.78,330.16,32.19
Dorsum Higazy,63.09,342.53,27.93
Rima Ariadaeus,247.44,13.43,6.47
Rima Billy,69.82,311.95,-14.74
Rima Messier,74.21,44.54,-0.75
Rima Zahia,15.24,329.54,25.02
Vallis Alpes,155.41,3.63,49.20
Vallis Baade,206.78,282.77,-45.55
Vallis Bohr,95.32,271.13,10.24
Vallis Bouvard,287.92,277.67,-38.44
Vallis Capella,106.28,35.03,-7.39
Vallis Inghirami,145.08,287.41,-43.94
Vallis Palitzsch,110.49,64.63,-26.16
Vallis Planck,502.89,126.15,-57.26
Dorsum Bucher,84.65,320.44,30.76
Dorsa Barlow,112.57,30.56,14.04
Catena Sylvester,139,276.88,79.98
Mons Agnes,0,5.34,18.66
Catena Abulfeda,209.97,16.70,-16.59
Catena Artamonov,131.21,105.77,26.09
Rima Birt,54.18,350.71,-21.40
Tisserand A,24.53,49.47,20.35
Catena Davy,52.33,353.73,-10.98
Catena Dziewulski,80.65,100.26,18.77
Catena Gregory,148.15,129.80,-0.59
Catena Humboldt,162.28,84.69,-21.98
Catena Krafft,55.10,287.74,14.91
Catena Kurchatov,234.91,136.60,37.24
Catena Leuschner (GDL),200.05,248.69,5.07
Catena Littrow,10.29,29.61,22.23
Catena Lucretius (RNII),232.06,233.55,-4.02
Catena Mendeleev,125.22,139.21,6.63
Catena Michelson (GIRD),450.59,246.41,-0.44
Catena Pierre,9.43,328.14,19.76
Catena Taruntius,69.23,48.70,3.04
Catena Timocharis,48.36,346.79,29.09
Catena Yuri,4.51,329.61,24.40
Vallis Christel,2.10,11.08,24.54
Dorsum Arduino,99.73,323.73,24.77
Dorsum Azara,103.19,19.16,26.86
Tisserand B,8.71,51.37,20.64
Tisserand D,5.66,49.46,21.75
Dorsa Dana,82.31,89.59,2.26
Dorsum Nicol,43.74,22.66,18.32
Ryder,15.54,143.29,-43.87
Abel,137.34,85.77,-34.62
Bi Sheng,55.27,148.45,78.34
Dorsa Ewing,261.56,321.68,-11.06
Dorsum Niggli,47.75,307.72,29.00
Abbot,10.40,54.74,5.55
Abenezra,43.18,11.89,-20.99
Cai Lun,44.89,113.66,80.11
Abetti,1.59,27.81,20.11
Zhang Yuzhe,38.00,222.17,-69.06
Abbe,63.97,174.77,-57.57
Abul Wáfa,54.17,116.63,0.96
Hanno K,25.32,76.74,-53.61
Dorsa Geikie,218.35,52.82,-4.20
Vening Meinesz T,15.63,159.23,-0.29
Maginus P,10.47,348.18,-50.69
Malyy G,29.21,107.10,21.71
Sechenov C,17.27,218.28,-5.14
Sharp M,4.74,318.54,47.38
Stöfler N,14.19,6.60,-41.90
Sechenov P,21.08,215.80,-9.74
Segers H,30.24,128.92,46.53
Ptolemaeus G,9.41,0.02,-7.14
Sharp U,6.32,311.31,47.40
Ptolemaeus T,6.55,359.98,-7.48
Sharp V,6.64,312.94,46.23
Shayn B,35.72,173.48,34.47
Taruntius H,8.58,49.87,0.32
Shayn F,36.88,175.39,32.97
South D,6.16,310.87,55.27
South E,8.11,306.99,56.69
South F,6.51,305.90,57.12
South H,5.51,311.81,57.25
South M,5.71,308.98,55.31
Spallanzani A,6.65,25.61,-46.31
Spallanzani D,6.28,28.57,-46.18
Stöfler O,9.16,1.19,-43.36
Struve G,14.27,285.99,23.89
Rima Gärtner,42.72,35.76,58.84
Struve H,21.16,276.64,25.18
Street R,4.90,345.38,-49.16
Street M,48.19,345.42,-47.81
Taruntius L,14.26,44.52,5.45
Wilhelm C,15.49,340.38,-41.60
Tisserand K,12.99,50.33,19.74
Vening Meinesz Q,16.24,161.02,-2.51
Titius J,20.19,101.59,-27.51
Taruntius K,5.65,51.57,0.64
Taruntius O,5.99,54.33,2.22
Taruntius P,6.77,51.58,0.06
Vening Meinesz C,39.99,163.83,1.17
Vening Meinesz W,36.86,161.01,1.40
Dorsum Zirkel,195.21,335.18,29.54
Purbach F,8.88,359.96,-24.59
Purbach Q,4.02,359.95,-25.92
Regiomontanus K,5.89,359.95,-30.26
Dorsum Grabau,123.68,345.80,29.75
Dorsa Argand,91.93,319.66,28.29
Dorsum Guettard,40.45,341.73,-9.91
Dorsa Aldrovandi,126.80,28.65,23.60
Vallis Schröteri,185.32,308.41,26.15
Vallis Snellius,640,57.83,-30.92
Rimae Hase,257.23,67.78,-34.70
Dorsum Termier,89.64,57.15,11.62
Dorsum Von Cotta,183.05,11.95,23.59
Rimae Arzachel,57,358.61,-18.30
Alfraganus,20.52,18.97,-5.42
Rima Rudolf,8.28,29.62,19.70
Dorsa Lister,180.08,23.51,19.76
Dorsa Mawson,142.71,52.48,-7.77
Dorsa Rubey,100.63,317.63,-9.87
Rima Cauchy,167,38.07,10.41
Rima Cleomedes,45.54,56.51,27.97
Rimae Repsold,152.05,279.54,50.73
Catena Sumner,220.51,111.91,37.89
Rima Schröter,27.24,353.75,1.27
Rima Agricola,125.07,306.57,29.24
Rupes Altai,545.19,23.12,-24.31
Rima Artsimovich,68.05,321.35,26.66
Rima Bradley,133.76,359.39,24.17
Rima Brayley,327.26,323.64,22.29
Rima Calippus,40,12.65,37.03
Rima Cardanus,221.92,288.86,11.31
Rima Cleopatra,14.66,306.19,30.03
Rima Conon,37.31,1.85,18.69
Rima Dawes,15,26.63,17.57
Rima Delisle,57.59,327.65,30.87
Rimae Palmieri,27.12,312.82,-27.83
Aloha,2.54,306.12,29.79
Rupes Liebig,144.78,314.07,-25.13
Rupes Mercator,132.40,337.15,-30.20
Rupes Recta,115.94,352.29,-21.67
Rima Diophantus,201.50,326.32,28.70
Rimae Menelaus,87,17.77,17.10
Rima Draper,244.15,334.63,17.36
Rima Marius,283.54,310.45,16.37
Alhazen,34.64,71.82,15.91
Rima Mairan,120.51,313.17,38.27
Rima Marcello,3.95,27.73,18.58
Promontorium Kelvin,45.00,326.55,-26.94
Rimae Maupertuis,50,337.17,51.23
Rima Galilaei,185.87,300.79,12.90
Aliacensis,79.64,5.13,-30.59
Rupes Boris,8.58,326.40,30.67
Rupes Cauchy,169.84,37.07,9.31
Almanon,47.75,15.13,-16.84
Rima Krieger,22.62,313.73,29.29
Alpetragius,40.02,355.48,-16.04
Alphonsus,110.54,357.15,-13.38
Rimae Alphonsus,87,358.05,-13.40
Rimae Apollonius,89.63,54.33,4.38
Alter,64.73,252.20,18.74
Rima Euler,104.97,329.68,21.08
Rima Flammarion,49.74,355.32,-2.38
Rima Furnerius,65.85,61.17,-35.29
Rima G. Bond,166.84,35.25,32.85
Rima Hyginus,203.96,6.77,7.61
Rima Jansen,45.12,29.51,14.49
Rima Gay-Lussac,40.03,337.67,13.17
Rupes Kelvin,85.91,326.82,-28.02
Rima Hadley,116.08,3.14,25.71
Rima Hansteen,30.89,307.00,-12.08
Rima Hesiodus,251.46,338.15,-30.53
Artemis,2.28,334.64,25.03
Rima T. Mayer,67.80,328.62,13.25
Rima Vladimir,10.50,359.24,25.19
Artem'ev,66.39,214.77,10.39
Rupes Toscanelli,50.13,312.46,26.97
Rima Milichius,140.72,327.13,8.02
Rima Oppolzer,94.2,1.27,-1.53
Rima Reiko,4.29,27.71,18.55
Rimae Doppelmayer,7.79,315.47,-26.23
Rimae Focas,61,262.45,-27.68
Banting,5.14,16.42,26.58
Rima Wan-Yu,13.71,328.56,19.98
Rimae de Gasparis,46.65,309.69,-24.98
Rimae Sirsalis,405,298.64,-15.00
Rimae Fresnel,75,3.72,28.11
Rimae Aristarchus,175,312.75,27.52
Ameghino,9.19,57.03,3.29
Rimae Archimedes,215,355.47,26.33
Rimae Atlas,46.8,44.41,46.81
Amici,52.03,187.77,-10.06
Ammonius,8.55,359.17,-8.52
Rimae Bode,233,356.77,9.54
Rimae Boscovich,32,11.26,9.87
Ball,40.31,351.60,-35.92
Balmer,136.29,70.22,-20.27
Rimae Bürg,98,25.27,44.70
Rimae Chacornac,100,31.24,29.00
Banachiewicz,99.09,80.00,5.27
Bancroft,12.49,353.56,28.06
Rimae Daniell,140.24,24.32,37.52
Barbier,65.37,157.93,-23.85
Rimae Gassendi,70,320.12,-17.47
Rimae Gerard,110,275.63,45.53
Rima Suess,156.38,312.85,6.62
Rima Yangel',30.39,4.79,16.62
Barkla,40.89,67.21,-10.66
Rima Sharp,276.66,309.63,46.01
Rima Sheepshanks,157.49,23.68,58.27
Rimae Goclenius,190,42.87,-7.83
Rimae Grimaldi,162,296.10,-6.18
Louville,34.81,313.96,44.12
Arago,25.50,21.42,6.14
Aratus,10.23,4.50,23.57
Rimae Darwin,170,293.34,-19.84
Rimae Parry,210,343.48,-8.06
Archimedes,81.04,356.00,29.71
Rimae Gutenberg,223,36.41,-4.42
Rimae Mersenius,240,313.47,-20.69
Rimae Posidonius,78,29.60,32.03
Rimae Herigonius,180,323.24,-13.92
Rimae Janssen,120,39.26,-45.79
Rimae Hevelius,180,293.62,0.80
Archytas,31.94,4.99,58.86
Barnard,115.73,85.94,-29.78
Barocius,82.72,16.80,-44.97
Rimae Petavius,110,60.48,-25.23
Barringer,66.89,209.56,-28.21
Rimae Kopff,250,271.89,-14.68
Rimae Littrow,165,30.47,22.46
Rimae Maclear,94,19.89,12.23
Rimae Maestlin,71,319.51,2.88
Rimae Plinius,100,23.14,17.05
Barrow,93.82,7.58,71.28
Rimae Hippalus,266,330.64,-25.59
Rimae Hypatia,200,22.77,-0.33
Bartels,54.95,270.15,24.50
Bouguer,22.23,324.17,52.32
Rimae Opelt,55,341.86,-13.64
Rimae Sulpicius Gallus,80,9.99,20.65
Boss,50.20,88.67,45.74
Rimae Pettit,320,266.37,-25.21
Rimae Ramsden,100,328.67,-32.92
Bonpland,59.24,342.66,-8.37
Rimae Pitatus,90,346.37,-29.83
Stadius L,2.87,347.04,10.12
Rimae Plato,180,356.98,50.87
Argelander,33.71,5.80,-16.54
Ariadaeus,10.40,17.27,4.55
Aristarchus,39.99,312.50,23.72
Mare Fecunditatis,840.35,53.66,-7.83
Aldrin,2.80,22.08,1.40
Alan,1.43,353.82,-10.93
Aristoteles,87.56,17.32,50.24
Rimae Taruntius,35,46.82,5.82
Rimae Theaetetus,53,5.86,33.03
Armstrong,4.21,24.94,1.35
Rimae Zupus,130,306.23,-15.46
Aristillus,54.37,1.20,33.88
Armi?ski,26.76,154.21,-16.36
Alekhin,74.81,228.14,-67.94
Rimae Ritter,75,17.96,3.50
Rimae Römer,112,34.86,26.98
Rimae Secchi,35,44.08,0.99
Rimae Triesnecker,200,4.83,5.10
Rimae Vasco da Gama,10.39,275.96,11.54
Alexander,94.80,13.69,40.25
Rimae Prinz,10.94,316.49,27.04
Rimae Riccioli,250,286.92,-1.51
Abulfeda,62.23,13.91,-13.86
Acosta,13.06,60.13,-5.64
Hainzel T,12.13,322.67,-40.19
Liouville,16.12,73.56,2.72
Adams,63.27,68.38,-31.89
Landsteiner,6.11,345.21,31.29
Agatharchides,51.98,328.88,-19.85
Mare Humboldtianum,230.78,81.54,56.92
Mons Vitruvius,44.27,30.73,19.33
Agrippa,43.74,10.47,4.09
Airy,38.89,5.61,-18.14
Mare Humorum,419.66,321.42,-24.47
Al-Bakri,12.21,20.24,14.33
Aitken,129.69,172.95,-16.44
Akis,2.28,328.24,20.01
Al-Khwarizmi,56.25,107.00,7.02
Al-Marrakushi,8.56,55.77,-10.44
Al-Biruni,80.41,92.61,18.07
Boris,1.72,326.49,30.53
Albategnius,130.84,4.00,-11.24
Alden,111.43,111.11,-23.50
Billy K,4.20,311.14,-12.96
Arnold,93.13,35.82,66.98
Mare Marginis,357.63,86.51,12.70
Krogh,19.17,65.68,9.41
Alder,82.12,182.11,-48.62
Mons Hadley Delta,17.24,3.70,25.72
Blanchinus M,4.11,2.57,-25.22
Arrhenius,40.93,268.54,-55.58
Artamonov,62.44,103.78,25.43
Amontons,2.46,46.77,-5.33
Amundsen,103.39,83.06,-84.43
Anaximander,68.71,308.55,66.96
Mare Moscoviense,275.57,148.12,27.28
Anaxagoras,51.89,349.82,73.48
Ango,0.87,327.66,20.47
Anaximenes,81.11,315.01,72.48
Anders,41.32,216.69,-41.31
Mare Nectaris,339.38,34.60,-15.18
Anderson,105.32,170.79,15.49
Andersson,13.41,264.53,-49.94
Mare Serenitatis,674.27,18.35,27.28
Andronov,16.56,146.10,-22.68
And?l,32.93,12.38,-10.41
Mare Smythii,373.96,87.04,-1.70
Mons Wolff,32.86,353.19,16.87
Mont Blanc,21.56,0.44,45.41
Angström,9.55,318.33,29.89
Ann,2.11,359.94,25.10
Birt E,5.34,350.33,-20.72
Annegrit,1.28,334.36,29.43
Ansgarius,91.41,79.72,-12.92
Anville,10.25,49.50,1.84
Antoniadi,137.91,186.94,-69.30
Blancanus G,9.33,334.81,-63.13
Apianus,63.43,7.86,-26.96
Apollo,524.23,208.52,-35.68
Anuchin,62.13,101.65,-48.85
Asada,12.37,49.90,7.24
Apollonius,50.66,60.96,4.50
Tucker,6.78,88.20,-5.61
Appleton,64.59,158.16,37.04
Artsimovich,7.95,323.37,27.61
Montes Recti,83.23,340.27,48.29
Aryabhata,21.88,35.17,6.20
Arzachel,96.98,358.06,-18.26
Montes Carpatus,333.59,336.37,14.56
Asclepi,40.56,25.52,-55.18
Ashbrook,157.68,249.42,-81.10
Montes Caucasus,443.50,9.93,37.51
Auwers,19.64,17.11,14.99
Aston,44.47,272.31,32.76
Yoshi,0.50,10.99,24.56
Atlas,88.11,44.38,46.74
Galilaei,15.98,297.16,10.48
Atwood,28.64,57.77,-5.87
Autolycus,38.87,1.48,30.67
Zasyadko,10.26,94.18,3.95
Auzout,32.92,64.00,10.20
Avery,10.72,81.36,-1.31
Hippalus A,7.61,327.14,-23.82
Avicenna,72.98,262.72,39.62
Borel,4.66,26.42,22.37
Avogadro,129.84,165.36,63.21
Azophi,47.54,12.69,-22.19
Harpalus S,4.42,309.59,51.55
Baade,57.85,277.96,-44.74
Babakin,19.15,123.26,-20.81
Harpalus T,4.34,310.42,50.12
Babbage,146.55,302.61,59.56
Babcock,95.27,94.13,4.13
Messier E,5.01,45.43,-3.34
Back,34.63,80.66,1.19
Backlund,75.46,103.34,-16.21
Hevelius L,7.59,289.52,2.04
Baco,65.30,19.09,-51.04
Baillaud,89.43,37.35,74.60
Hippalus B,4.98,329.60,-25.23
Bailly,300.56,291.10,-66.82
Baily,25.67,30.55,49.77
Hippalus C,3.33,329.36,-24.14
Balandin,11.80,152.58,-18.94
Balboa,69.19,276.69,19.23
Hyginus C,4.14,8.31,7.68
Baldet,55.75,208.04,-53.31
Boole,61.33,272.71,63.78
Hyginus D,4.71,4.32,11.40
Borda,45.40,46.52,-25.19
Gardner,17.61,33.81,17.74
Borman,50.72,211.74,-39.06
Glauber,15.24,142.66,11.31
Golitsyn,35.46,254.80,-25.19
Born,15.06,66.82,-6.05
Al-Khwarizmi M,16.40,107.44,3.05
Boscovich,41.52,11.01,9.71
Lippershey M,1.84,349.10,-24.27
Bayer,48.51,324.85,-51.62
Bose,92.55,190.63,-53.95
Bawa,1.57,102.55,-25.27
Suess J,3.31,311.46,6.89
Beals,52.60,86.57,37.10
Marius K,3.61,309.30,9.39
Beaumont,50.68,28.82,-18.08
Behaim,56.21,79.40,-16.60
Marius U,2.29,312.30,9.56
Beer,9.05,350.89,27.07
Becquerel,62.85,129.50,40.79
Fairouz,2.86,102.94,-26.06
Beijerinck,76.76,151.83,-13.40
Das,35.94,222.95,-26.49
Beketov,8.29,29.17,16.23
Bell,86.33,263.46,21.97
Nöggerath P,9.93,318.05,-47.69
Bellinsgauzen (Bellingshausen),63.22,195.15,-60.71
Bellot,17.49,48.19,-12.47
Pontanus O,10.08,14.09,-26.09
Belopol'skiy,61.90,231.76,-17.25
Bel'kovich,215.08,90.14,61.52
Pontanus Q,4.69,14.39,-27.41
Belyaev,55.90,143.11,23.09
Benedict,13.83,141.53,4.34
Bergman,22.50,137.48,6.97
Bergstrand,42.98,176.44,-18.72
Pontanus R,5.85,15.60,-28.19
Berkner,87.61,254.76,25.12
Berlage,93.74,196.39,-63.04
Stöfler T,4.68,8.10,-39.68
Bernoulli,47.29,60.61,34.92
Römer Z,11.59,37.04,24.12
Boethius,11.16,72.33,5.56
Berosus,75.23,69.99,33.49
Heraclitus A,4.96,4.54,-49.41
Bessel,15.56,17.92,21.73
Stevinus A,7.86,51.64,-31.85
Bettinus,71.78,314.83,-63.39
Berzelius,48.53,50.95,36.55
Bessarion,9.84,322.69,14.85
Be?vá?,66.61,125.07,-2.57
Bianchini,37.58,325.62,48.78
Bhabha,70.25,194.68,-55.49
Bingham,34.98,115.05,8.01
Biela,77.02,51.62,-54.99
Bilharz,44.55,56.34,-5.82
Billy,45.57,309.76,-13.83
Biot,13.00,51.07,-22.70
Mason B,9.80,29.66,41.84
Birkhoff,329.81,214.34,58.45
Bombelli,9.72,56.18,5.28
Mersenius L,3.71,311.59,-19.93
Birkeland,81.63,174.00,-30.16
Lick,31.62,52.84,12.35
Birmingham,89.91,349.30,65.12
Birt,15.80,351.40,-22.36
Bjerknes,48.17,113.68,-38.49
Black,19.46,80.39,-9.19
Blackett,145.30,244.16,-37.54
Blagg,4.97,1.46,1.21
Blancanus,105.82,338.37,-63.76
Blanchard,37.45,266.50,-58.24
Blanchinus,59.90,2.44,-25.31
Blazhko,51.11,212.13,31.36
Bliss,22.84,346.22,53.04
Bobillier,6.04,15.43,19.63
Bobone,32.14,227.88,26.70
Bode,17.79,357.54,6.71
Boguslawsky,94.58,43.25,-72.90
Bohnenberger,31.73,40.05,-16.23
Bohr,70.07,273.47,12.70
Bok,43.02,188.41,-20.25
Boltzmann,72.31,269.59,-74.82
Bolyai,102.22,126.12,-33.85
Bondarenko,28.25,136.88,-17.24
Boussingault,127.60,53.73,-70.20
Bowditch,43.04,103.06,-24.96
Bowen,8.09,9.09,17.62
Boyle,57.12,177.89,-53.28
Dag,0.35,5.26,18.70
Brackett,8.87,23.53,17.83
Brayley,14.16,323.06,20.89
Bragg,77.20,256.56,42.32
Bruce,6.14,0.37,1.16
Brashear,60.16,188.42,-73.53
Faye,38.02,3.81,-21.39
Bredikhin,61.67,201.62,17.25
Breislak,48.63,18.30,-48.30
Brenner,90.01,39.10,-39.09
Brewster,9.83,34.68,23.26
Brianchon,137.26,271.63,74.75
Bridgman,81.88,136.97,43.38
Briggs,36.75,290.81,26.45
Brisbane,44.32,68.75,-49.19
Bronk,66.15,225.32,25.89
Chadwick,29.74,258.65,-52.85
Brouwer,119.59,235.25,-35.82
Brown,34.03,342.01,-46.52
Brunner,50.65,90.91,-9.85
Clerke,6.66,29.79,21.68
Carlini,10.65,335.88,33.74
Buch,51.31,17.67,-38.89
Buffon,105.75,226.46,-40.64
Bullialdus,60.71,337.73,-20.74
Buisson,61.26,112.95,-1.46
Coblentz,32.66,126.65,-38.09
Bunsen,55.22,274.54,41.40
Burnham,24.09,7.25,-13.92
Burckhardt,54.36,56.38,31.10
Censorinus,4.09,32.69,-0.41
Butlerov,38.77,251.19,12.04
Chrétien,98.62,162.99,-46.11
Cichus,39.18,338.81,-33.28
Clairaut,76.89,13.86,-47.83
Buys-Ballot,66.37,174.82,20.85
Byrgius,84.46,294.62,-24.73
Béla,10.07,2.26,24.66
Büsching,53.49,19.95,-38.04
C. Mayer,37.53,17.30,63.25
Cabannes,81.30,189.79,-61.24
Cabeus,100.58,317.86,-85.33
Cailleux,52.85,153.49,-60.41
Cepheus,39.43,45.78,40.68
Chacornac,50.44,31.66,29.88
Chaffee,51.75,205.37,-39.06
Challis,53.21,9.08,79.57
Chalonge,25.07,243.65,-20.43
Chamberlin,60.41,96.03,-58.83
Champollion,48.97,175.02,37.39
Chandler,88.60,171.75,43.64
Cajal,8.56,31.07,12.59
Cajori,74.64,168.69,-47.66
Cameron,10.90,45.93,6.18
Campanus,46.40,332.10,-28.04
Campbell,222.47,152.90,45.57
Cannizzaro,54.51,260.27,55.50
Cannon,57.57,81.36,19.87
Cantor,75.72,118.68,38.03
Capella,48.13,34.91,-7.64
Capuanus,59.68,333.26,-34.09
Cardanus,49.57,287.50,13.27
Carmichael,19.73,40.36,19.53
Carnot,126.06,215.79,52.09
Clark,52.10,119.34,-38.67
Clausius,24.19,316.06,-36.90
Clavius,230.77,345.27,-58.62
Cleomedes,130.77,55.50,27.60
Cleostratus,63.22,282.60,60.31
Ching-Te,3.70,29.96,20.01
Cockcroft,92.16,197.09,31.09
Hartmann K,11.64,136.10,1.40
Carpenter,59.06,308.76,69.51
Carrel,15.58,26.67,10.66
Promontorium Taenarium,70,352.65,-18.63
Carrillo,17.85,80.96,-2.11
Carrington,27.77,62.03,43.96
Cartan,15.62,59.28,4.24
Carver,62.45,127.59,-43.45
Casatus,102.85,329.25,-72.69
Cassegrain,56.65,113.29,-51.95
Cassini,56.87,4.64,40.25
Condon,34.85,60.36,1.87
Catalán,26.77,272.62,-45.69
Catharina,98.77,23.55,-17.98
Cauchy,11.80,38.62,9.55
Cavalerius,59.34,293.07,5.09
Cavendish,52.63,306.21,-24.62
Caventou,2.80,330.62,29.74
Cayley,14.20,15.08,3.93
Celsius,38.95,20.04,-34.09
Chang Heng,42.65,112.21,18.90
Chang-Ngo,2.33,357.83,-12.68
Conon,20.96,1.95,21.65
Chant,33.59,250.54,-40.13
Chaplygin,123.38,150.23,-5.76
Chapman,76.83,259.52,50.09
Chappe,55.79,268.75,-61.29
Chappell,73.91,183.22,54.53
Charles,1.33,333.63,29.89
Charlier,109.88,228.30,36.21
Chaucer,45.47,219.29,3.38
Chauvenet,77.67,137.19,-11.63
Chebyshev,179.05,227.11,-34.01
Chernyshev,59.31,174.40,47.01
Chevallier,51.83,51.57,45.00
Chladni,13.07,1.11,3.98
Collins,2.57,23.70,1.29
Curtis,2.87,56.79,14.57
Colombo,79.01,46.02,-15.25
Compton,164.62,104.05,55.86
Comrie,59.25,246.83,23.39
Comstock,73.23,237.94,21.59
Condorcet,74.85,69.58,12.09
Congreve,57.60,192.15,-0.28
Cook,45.16,48.80,-17.49
Cooper,51.87,175.92,52.68
Copernicus,96.06,339.92,9.62
Cori,67.22,207.09,-50.48
Coriolis,78.55,171.79,0.56
Couder,18.55,267.41,-4.90
Coulomb,89.71,244.99,54.46
Courtney,1.23,329.19,25.13
Lansberg P,2.42,336.97,-2.36
Cremona,85.12,269.14,67.23
Crile,9.29,45.98,14.20
Crocco,67.50,150.50,-46.98
Crommelin,93.47,212.04,-67.46
Crookes,48.25,194.89,-10.39
Deseilligny,6.01,20.58,21.12
Crozier,22.51,50.71,-13.55
Crüger,45.94,293.03,-16.67
Ctesibius,32.09,118.75,0.83
Curie,138.86,92.27,-23.04
Curtius,99.29,4.40,-67.07
Cusanus,60.86,69.40,71.82
Cuvier,77.29,9.69,-50.29
Cyrano,79.58,157.37,-20.36
Harden,14.98,143.54,5.46
Fauth,11.93,339.86,6.23
Cyrillus,98.08,24.06,-13.29
Cysatus,47.77,353.66,-66.20
da Vinci,37.46,44.95,9.10
Daguerre,45.78,33.61,-11.90
Dale,23.40,82.92,-9.55
Dalton,60.68,275.54,17.06
Daly,14.96,59.50,5.74
Damoiseau,36.66,298.74,-4.85
Danjon,69.30,123.90,-11.42
Darney,14.81,336.43,-14.60
Darwin,122.18,290.79,-19.92
Daubrée,14.66,14.74,15.72
Davisson,92.46,185.03,-37.92
Davy,33.93,351.85,-11.84
Dawes,17.59,26.34,17.20
Townley,17.67,63.18,3.42
Dawson,44.31,224.95,-66.98
De Forest,56.25,196.66,-76.93
Promontorium Laplace,50,334.49,46.84
de Gasparis,30.89,309.17,-25.83
De La Rue,135.22,52.84,59.01
de Gerlache,32.70,271.65,-88.48
Feuillée,8.93,350.53,27.37
De Moraes,54.41,142.99,49.38
De Morgan,9.67,14.88,3.30
De Roy,43.50,261.01,-55.23
De Sitter,63.78,38.57,79.81
De Vries,57.50,183.21,-19.68
Finsch,4.05,21.26,23.58
Debes,31.92,51.62,29.47
Debus,19.76,99.68,-10.68
Debye,127.03,183.97,49.42
Dechen,12.04,291.81,46.12
Delambre,51.48,17.39,-1.93
Lansberg X,2.99,332.12,1.20
Delaunay,44.62,2.61,-22.25
Delia,1.57,353.87,-10.91
Delisle,24.83,325.32,29.98
Dellinger,82.03,140.69,-6.86
Delmotte,32.15,60.20,27.16
Lansberg Y,3.55,331.81,0.69
Delporte,42.49,121.55,-15.89
Democritus,37.78,34.99,62.30
Deluc,45.68,357.02,-55.01
Golgi,5.58,300.04,27.78
Dembowski,26.10,7.27,2.87
Demonax,121.93,59.35,-78.08
Denning,44.17,142.75,-16.26
Laplace A,8.15,333.06,43.74
Desargues,84.84,286.57,70.24
Descartes,47.72,15.66,-11.74
Laplace B,5.04,340.14,51.34
Dionysius,17.24,17.29,2.77
Deslandres,227.01,354.42,-32.55
Diderot,20.00,121.54,-20.41
Deutsch,73.33,110.90,24.34
Fox,23.96,98.14,0.47
Dewar,46.30,165.62,-2.61
Diana,1.55,35.65,14.29
Diophantus,17.57,325.70,27.61
Dirichlet,47.24,207.94,10.57
Dobrovol'skiy,38.39,129.67,-12.83
Dollond,11.04,14.41,-10.48
Doerfel,68.63,251.47,-68.96
Gaston,2.01,326.04,30.87
Donati,35.84,5.10,-20.69
Edith,6.92,102.32,-25.76
Eijkman,56.36,217.48,-63.21
Eichstadt,49.57,281.58,-22.62
Dorsa Whiston,138.93,303.03,29.76
Douglass,50.94,237.27,35.49
Eimmart,44.98,64.80,23.96
D'Arrest,29.66,14.60,2.26
Einstein,181.47,271.34,16.60
Einthoven,73.93,110.06,-5.05
Elger,21.51,330.18,-35.40
Donna,1.84,38.30,7.22
Donner,55.05,97.99,-31.35
Doppelmayer,65.07,318.49,-28.47
Doppler,101.78,200.15,-12.58
Dorsa Andrusov,80.97,56.76,-1.55
Dorsa Burnet,194.99,303.21,26.17
Dove,30.35,31.42,-46.83
Draper,8.27,338.24,17.56
Drebbel,30.23,310.87,-40.93
Drygalski,162.48,272.82,-79.57
Dreyer,63.84,97.09,10.23
Drude,27.13,268.11,-38.56
Dryden,54.45,203.84,-33.21
D'Arsonval,30.36,124.58,-10.31
Dubyago,48.12,69.94,4.38
Dufay,36.10,169.53,5.56
Dugan,49.65,103.10,64.12
Dunthorne,15.11,328.29,-30.11
Dyson,63.13,238.29,60.87
d'Alembert,233.55,164.89,51.07
Dziewulski,68.90,99.01,20.98
Eckert,2.61,58.37,17.28
Eddington,120.13,287.98,21.50
Edison,62.72,99.26,24.88
Egede,34.18,10.63,48.71
Ehrlich,33.58,187.73,40.81
Ellerman,46.20,239.60,-25.43
Ellison,36.98,251.95,54.93
Elmer,16.86,84.17,-10.23
Elvey,80.20,259.35,9.00
Encke,28.26,323.31,4.57
Endymion,122.10,56.48,53.60
Engel'gardt (Engelhardt),43.51,200.53,5.38
Epigenes,54.51,355.37,67.49
Epimenides,22.56,329.66,-40.91
Eratosthenes,58.76,348.68,14.47
Erro,63.75,98.53,5.68
Esclangon,15.29,42.06,21.46
Esnault-Pelterie,76.78,218.17,47.41
Espin,70.00,109.33,28.14
Euclides,11.79,330.43,-7.40
Euctemon,62.69,30.56,76.25
Euler,26.02,330.81,23.26
Evans,69.39,226.22,-9.62
Evdokimov,48.88,206.95,34.57
Fahrenheit,6.65,61.70,13.12
Evershed,65.27,200.49,35.30
Maskelyne,22.41,30.04,2.15
Eötvös,101.79,134.42,-35.60
Fabbroni,10.54,29.27,18.65
Fabricius,78.89,41.84,-42.75
Fabry,179.43,100.68,43.07
Faraday,69.02,8.74,-42.44
Faustini,42.48,84.30,-87.18
Fechner,59.32,125.03,-58.24
Felix,1.44,334.62,25.08
Feoktistov,22.06,140.50,30.73
Fermat,37.77,19.79,-22.71
Fermi,241.40,123.24,-19.60
Fernelius,68.41,4.85,-38.17
Fersman,148.14,233.93,17.90
Fesenkov,36.11,135.14,-23.15
Finsen,72.97,182.27,-42.29
Firsov,50.99,112.69,4.20
Firmicus,56.80,63.42,7.24
Fischer,30.47,142.43,7.98
Fitzgerald,104.21,187.86,26.67
Foucault,25.07,320.13,50.45
Fizeau,107.07,225.88,-58.18
Grachev,34.98,251.57,-3.83
Flammarion,76.17,356.26,-3.32
Flamsteed,19.34,315.66,-4.49
Fleming,126.37,109.27,14.90
Halley,34.58,5.72,-8.04
Huggins,65.78,358.48,-41.06
Humason,4.33,303.34,30.73
Humboldt,199.45,80.96,-27.02
Hume,22.29,90.47,-4.67
Focas,22.04,266.08,-33.70
Fontana,31.47,303.20,-16.03
Fontenelle,37.68,341.04,63.41
Foster,37.01,218.50,23.58
Fourier,51.56,306.89,-30.31
Fowler,139.52,214.73,42.58
Fra Mauro,96.75,343.02,-6.06
Fracastorius,120.57,33.07,-21.35
Franck,11.90,35.55,22.58
Franz,25.48,40.24,16.56
Fredholm,13.39,46.55,18.36
Glaisher,15.91,49.34,13.18
Fraunhofer,57.75,59.06,-39.51
Godin,34.24,10.15,1.82
Glazenap,38.96,137.75,-1.85
Glushko,40.09,282.33,8.11
Goclenius,73.03,45.03,-10.05
Goddard,93.18,89.12,15.15
Freundlich,83.16,170.89,25.00
Greaves,14.26,52.79,13.18
Fridman (Friedmann),101.45,233.12,-12.48
Frost,78.29,241.09,37.40
Froelich,56.73,248.36,80.00
Fryxell,17.62,258.34,-21.25
Furnerius,135.02,60.53,-36.00
Fényi,43.30,254.94,-44.94
G. Bond,19.04,36.32,32.38
Gadomski,65.65,212.64,36.21
Galen,9.18,4.96,21.95
Galle,20.95,22.32,55.87
Galois,231.96,207.00,-13.93
Galvani,76.82,275.43,49.51
Gambart,24.67,344.76,0.92
Gamow,113.91,144.64,65.28
Gaudibert,33.13,37.82,-10.92
Ganskiy (Hansky),42.10,97.00,-9.64
Geissler,17.38,76.50,-2.59
Ganswindt,77.51,111.16,-79.41
Garavito,81.04,156.78,-47.21
Gambart B,10.83,348.41,2.16
Gassendi,111.39,320.03,-17.55
Gruithuisen,14.97,320.22,32.88
Gauricus,79.64,347.25,-33.90
Gauss,170.72,79.07,36.00
Gavrilov,61.61,131.22,17.40
Gay-Lussac,25.40,339.20,13.87
Geber,44.67,13.84,-19.46
Geiger,36.63,158.40,-14.38
Geminus,81.97,56.66,34.41
Hansen,41.17,72.54,14.04
Gemma Frisius,88.54,13.36,-34.32
Haret,29.77,183.81,-58.77
Hargreaves,17.99,64.09,-2.17
Gerard,98.78,279.49,44.53
Gibbs,78.76,84.26,-18.36
Gerasimovich,90.18,236.58,-22.95
Helmert,26.71,87.67,-7.56
Gernsback,47.20,99.52,-36.52
Holetschek,37.76,151.14,-27.61
Gilbert,100.24,76.15,-3.19
Gill,63.89,75.94,-63.76
Ginzel,53.23,97.40,14.24
Giordano Bruno,22.13,102.89,35.96
Golovin,37.86,161.24,39.75
Goodacre,44.09,14.07,-32.67
Gould,32.99,342.75,-19.25
Grace,1.48,35.89,14.20
Al-Khwarizmi T,14.05,104.96,7.06
Graff,36.16,271.29,-42.30
Grave,36.94,150.23,-17.04
Hilbert,173.23,108.32,-17.87
Gambart C,11.66,348.17,3.32
Green,68.27,133.11,3.68
Gregory,63.90,127.27,1.75
Gassendi N,3.74,320.68,-18.06
Grigg,36.72,229.86,12.50
Grimaldi,173.48,291.63,-5.37
Grissom,59.81,212.02,-46.92
Mavis,1.09,333.64,29.76
Grotrian,36.78,128.28,-66.15
Grove,28.54,32.98,40.30
Gruemberger,91.49,349.69,-67.04
Guericke,60.75,345.81,-11.56
Guillaume,56.74,186.61,45.15
Gullstrand,45.05,230.33,44.95
Hornsby,2.85,12.50,23.79
Herigonius,14.85,326.02,-13.35
Gum,54.54,88.90,-40.33
Gärtner,101.78,34.75,59.24
H. G. Wells,108.89,122.62,40.84
Gutenberg,70.64,41.24,-8.61
Guthnick,37.02,265.96,-47.75
Guyot,98.28,117.12,11.62
Hermann,15.92,302.53,-0.87
Hagecius,79.54,46.62,-59.91
Hagen,57.52,135.94,-48.32
Hahn,87.49,73.54,31.21
Haidinger,21.32,334.86,-39.17
Hainzel,70.56,326.47,-41.23
Haldane,40.25,84.10,-1.65
Hall,31.76,36.75,33.80
Hamilton,57.45,84.41,-42.77
Hale,84.41,91.71,-74.12
Hanno,59.54,71.38,-56.46
Hansteen,44.99,307.94,-11.53
Horrocks,29.65,5.84,-3.98
Hortensius,14.16,332.00,6.46
Houtermans,42.67,87.37,-9.41
Houzeau,76.84,236.10,-17.24
Hubble,81.83,86.90,22.28
Isabel,1.22,325.93,28.18
Harlan,63.45,79.64,-38.30
Harold,1.43,353.93,-10.88
Harpalus,39.76,316.50,52.73
Hartwig,78.45,279.53,-6.13
Harriot,52.77,114.39,33.19
Hatanaka,30.14,238.07,29.33
Hartmann,63.28,135.45,2.71
Hell,33.31,352.20,-32.41
Harvey,59.97,213.48,19.34
Hase,82.07,62.68,-29.37
Hausen,163.23,271.50,-65.11
Hayford,28.15,183.55,12.68
Hayn,86.21,83.86,64.55
Healy,37.97,249.00,32.49
Heaviside,164.46,166.77,-10.44
Hecataeus,133.67,79.67,-22.06
Be?vá? S,15.57,121.40,-3.30
Hedin,157.37,283.42,2.87
Heinrich,6.86,344.63,24.84
Heinsius,64.87,342.17,-39.48
Heis,13.68,328.01,32.47
Helberg,61.92,257.54,22.62
Helicon,23.73,336.89,40.43
Helmholtz,110.16,65.34,-68.64
Henderson,43.49,152.00,4.76
Herodotus,35.87,310.16,23.25
Hendrix,16.63,200.02,-46.85
Henry,39.06,302.98,-23.97
Henry Frères,41.73,300.98,-23.52
Hyginus,8.69,6.27,7.75
Henyey,68.74,207.67,12.69
Hypatia,38.81,22.58,-4.25
Heraclitus,85.73,6.42,-49.30
Ingalls,37.23,206.66,26.15
Hercules,68.31,39.21,46.82
Lepaute,16.35,326.30,-33.30
Herschel,39.08,357.91,-5.68
Hesiodus,43.23,343.58,-29.41
Hertz,82.94,104.56,13.32
Hill,15.85,40.81,20.91
Hess,90.43,174.18,-54.46
Hippalus,57.35,329.58,-24.91
Hevelius,113.86,292.53,2.19
Hogg,38.39,121.95,33.51
Heymans,46.44,215.06,74.75
Heyrovsky,16.65,264.57,-39.55
Hipparchus,143.94,4.91,-5.35
Hippocrates,59.23,213.46,70.26
Hirayama,145.20,93.62,-6.01
Hoffmeister,44.46,136.83,15.04
Hohmann,16.80,265.73,-17.91
Holden,47.60,62.52,-19.18
Hommel,113.59,32.92,-54.73
Hooke,34.34,54.85,41.13
Hopmann,87.84,159.23,-51.00
Kosberg,14.62,149.61,-20.18
Horrebow,24.97,319.06,58.80
Hédervári,74.14,85.60,-81.77
Lacus Veris,382.88,274.09,-16.48
Hutton,45.16,168.68,37.22
Huxley,3.47,355.45,20.19
Kimura,27.44,118.38,-56.81
Kinau,41.87,14.93,-60.74
King,76.20,120.49,4.96
Izsak,30.82,117.59,-23.32
J. Herschel,154.44,318.14,62.31
Nasmyth,78.37,303.60,-50.48
Ibn Battuta,11.51,50.43,-6.95
Nassau,75.80,177.33,-24.91
Ian,1.51,359.61,25.71
Ibn Firnas,88.29,122.30,6.83
Dziewulski Q,28.22,98.45,20.54
Il'in,12.42,262.32,-17.80
Ibn Yunus,59.68,91.13,14.13
Ibn-Rushd,31.07,21.71,-11.68
Icarus,93.72,186.74,-5.49
Ideler,37.77,22.24,-49.31
Inghirami,94.59,291.05,-47.49
Idel'son,59.81,112.69,-81.34
Innes,42.83,119.30,27.84
Ioffe,83.94,230.84,-14.38
Isaev,94.10,147.49,-17.56
Green Q,14.75,131.84,2.31
Isidorus,41.39,33.50,-7.96
Joy,5.11,6.55,25.01
Jules Verne,145.53,147.27,-34.84
Julienne,1.80,3.12,26.05
Julius Caesar,84.71,15.21,9.16
Kaiser,53.14,6.47,-36.48
Jackson,71.37,196.68,22.04
Kathleen,5.36,359.16,25.34
Jacobi,66.27,11.30,-56.81
Jansen,24.20,28.64,13.55
Jansky,73.77,89.50,8.62
Janssen,200.65,40.82,-44.95
Jarvis,41.22,211.79,-35.13
Jeans,81.12,91.51,-55.57
Jehan,4.46,328.13,20.71
Jenkins,37.76,78.04,0.37
Jenner,73.66,95.98,-42.00
Jerik,0.62,27.63,18.52
Jomo,7.35,2.44,24.40
José,1.21,358.33,-12.67
Joule,97.52,215.86,27.15
Kane,54.96,25.84,62.99
Kamerlingh Onnes,70.03,243.71,14.71
Keldysh,32.75,43.64,51.22
Kant,30.85,20.19,-10.62
Kao,34.54,87.81,-6.71
Kapteyn,48.65,70.59,-10.78
Kunowsky,18.26,327.47,3.21
Karpinskiy,91.40,166.80,72.60
Katchalsky,32.29,116.07,5.90
Lacus Somniorum,424.75,30.80,37.56
Karrer,55.56,217.72,-52.06
Kasper,12.38,122.12,8.29
Keeler,158.06,161.77,-9.77
Kepler,29.48,321.99,8.12
Kekulé,94.22,221.53,16.30
Natasha,10.98,328.83,19.97
Kepínski,31.66,126.71,28.62
Khvol'son,55.87,111.87,-14.12
Kibal'chich,91.66,212.82,2.72
Kircher,71.19,314.51,-67.00
Kidinnu,55.10,122.94,35.79
Lassell,21.82,352.09,-15.48
Kies,45.54,337.37,-26.30
Kuo Shou Ching,33.48,225.34,8.10
Kiess,67.78,84.11,-6.40
Liebig,38.96,311.70,-24.35
Kirchhoff,24.38,38.84,30.30
Kirkwood,68.12,203.33,68.33
Klaproth,121.37,333.73,-69.85
Klein,43.47,2.52,-11.98
Klute,77.46,218.23,36.92
Kleymenov,55.97,219.64,-32.47
Taylor,36.35,16.64,-5.28
Knox-Shaw,13.44,80.19,5.35
Koch,94.70,150.33,-42.13
Kolhörster,78.77,244.98,10.78
Konoplev,27.67,235.62,-28.16
Kohlschütter,56.25,153.94,14.24
Naumann,9.92,297.98,35.37
Komarov,80.42,152.24,24.58
Lacus Perseverantiae,70.64,61.93,7.83
Lacus Solitudinis,122.67,103.87,-27.52
Kondratyuk,97.97,115.80,-15.33
Tebbutt,33.99,53.51,9.45
Kopff,40.48,270.32,-17.39
Lacus Timoris,153.64,332.04,-39.42
Korolev,423.41,202.59,-4.19
Konstantinov,68.07,158.34,19.55
Kramarov,21.04,261.10,-2.29
Kostinskiy,67.91,118.85,14.43
Krieger,22.86,314.39,29.02
Kovalevskaya,113.70,230.56,30.86
Koval'skiy,44.97,101.03,-21.89
Kozyrev,59.35,129.59,-46.64
Krafft,51.14,287.27,16.55
Kramers,61.59,232.02,53.28
Krasnov,41.17,280.17,-29.93
Krasovskiy,61.67,184.36,3.79
Kreiken,29.36,84.55,-9.04
Krusenstern,46.43,5.75,-26.30
La Condamine,37.82,331.78,53.53
Krylov,49.82,193.88,35.26
Maclear,20.33,20.10,10.52
Kugler,65.87,104.09,-53.44
Kuiper,6.27,337.31,-9.77
Kulik,60.45,205.37,41.97
Lents (Lenz),21.98,257.70,2.72
Kurchatov,110.95,141.73,38.29
Priscilla,1.49,353.78,-10.95
Kästner,116.07,78.93,-6.90
König,22.85,335.32,-24.22
La Pérouse,80.40,76.28,-10.66
Maclaurin,54.33,67.98,-1.92
Lacroix,36.07,300.79,-37.93
Lacus Aestatis,86.38,291.43,-14.83
Lacus Autumni,195.64,276.82,-11.81
Leonov,34.04,148.36,19.06
Letronne,117.58,317.51,-10.50
Lacus Doloris,102.90,8.61,16.80
Lacus Excellentiae,197.73,316.42,-35.65
Lacus Felicitatis,98.48,5.35,18.51
Longomontanus,145.49,338.12,-49.55
Louise,0.64,325.80,28.48
Love,90.07,129.17,-6.33
Littrow,28.51,31.39,21.50
Neander,49.22,39.88,-31.35
Lacus Mortis,158.78,27.31,45.13
Leucippus,57.03,243.58,29.24
Leuschner,50.14,250.94,1.66
Lacus Oblivionis,49.01,191.47,-20.38
Lacus Odii,72.67,7.27,19.21
Nearch,72.79,39.01,-58.58
Piccolomini,87.58,32.19,-29.69
Pickering,15.39,6.99,-2.87
Pictet,59.94,352.50,-43.56
Lacus Temporis,205.29,56.20,46.77
Lade,58.10,9.99,-1.32
Lalande,23.54,351.35,-4.45
Lamb,103.55,100.94,-42.67
Lagalla,88.77,337.64,-44.48
Lallemand,16.68,275.79,-14.40
Lagrange,162.21,288.55,-32.60
Lamarck,114.65,289.94,-23.12
Lambert,30.12,339.01,25.77
Gruithuisen F,4.18,322.01,36.27
Lampland,63.04,131.50,-31.16
Lamont,83.23,23.31,5.13
Lansberg,38.74,333.37,-0.31
Lamé,84.27,64.55,-14.75
Gruithuisen G,6.01,315.98,36.59
Lamèch,12.40,13.15,42.78
Landau,218.14,240.66,42.16
Gruithuisen P,9.13,319.43,37.17
Lander,40.05,131.80,-15.33
Lane,53.75,132.36,-9.50
Leakey,12.48,37.46,-3.18
Langemak,104.75,119.45,-9.93
Einthoven P,18.48,108.80,-7.07
Langevin,57.79,162.69,44.16
Langley,59.16,273.95,51.16
Langmuir,91.50,231.10,-35.84
Langrenus,131.97,61.03,-8.86
Laue,89.16,262.94,28.29
Lauritsen,51.24,96.30,-27.54
Lavoisier,71.01,278.74,38.16
Moltke,6.15,24.16,-0.59
Lawrence,24.02,43.29,7.35
Le Gentil,125.38,283.98,-74.27
Le Monnier,68.39,30.50,26.65
Lindbergh,13.34,52.90,-5.41
Petermann,76.94,67.89,74.34
Peters,14.66,29.39,68.06
Leavitt,69.30,220.10,-44.85
Lee,41.17,319.24,-30.65
Lebedev,121.8,107.88,-46.80
Auzout D,11.65,62.42,9.34
Lebedinskiy,63.39,195.11,7.84
Lebesgue,11.39,88.97,-5.13
Legendre,78.08,70.01,-28.92
Monge,36.60,47.54,-19.24
Lehmann,53.84,303.83,-39.95
Lemaître,93.69,210.02,-61.36
Levi-Civita,108.22,143.13,-23.34
Lewis,40.31,245.77,-18.50
Lexell,63.70,355.73,-35.77
Lichtenberg,19.52,292.28,31.85
Ley,81.04,154.83,42.10
Licetus,75.41,6.54,-47.18
Lilius,61.17,6.09,-54.60
Linda,1.10,326.62,30.68
Lindblad,59.36,260.77,70.03
Linné,2.22,11.79,27.74
Lindenau,53.07,24.77,-32.34
Lindsay,32.23,13.01,-6.99
Lippershey,6.74,349.61,-25.96
Lippmann,160.06,245.68,-55.42
Litke (Lütke),38.17,123.12,-16.76
Lobachevskiy,87.25,113.07,9.75
Maestlin,6.81,319.28,4.89
Lockyer,35.07,36.59,-46.27
Loewy,22.45,327.14,-22.69
Lodygin,56.11,213.22,-17.42
Einthoven R,13.37,107.42,-6.04
Lohrmann,31.25,292.61,-0.43
Lohse,43.34,60.30,-13.76
Lomonosov,90.68,98.27,27.35
Mairan,39.49,316.50,41.59
Lovelace,57.06,250.49,82.08
Lovell,35.09,217.52,-36.74
Lowell,62.64,256.58,-12.96
Lubbock,14.09,41.78,-3.98
Lubiniezky,42.97,336.10,-17.88
Lucian,6.84,36.78,14.34
Lucretius,64.61,238.75,-8.22
Marco Polo,28.25,357.95,15.52
Ludwig,23.28,97.45,-7.72
Luther,9.28,24.15,33.19
Lyapunov,67.58,89.36,26.42
Lyell,31.16,40.55,13.62
Lyman,83.25,162.47,-64.95
Macrobius,62.79,45.97,21.25
Lyot,150.6,84.80,-50.46
Magelhaens,37.20,44.07,-11.97
Main,47.42,10.40,80.86
Maginus,155.57,354.01,-50.03
Maksutov,83.83,191.34,-40.74
Petit,5.04,63.46,2.32
Malapert,72.38,11.40,-84.99
Mallet,58.91,54.05,-45.41
Malyy,41.29,105.55,22.02
Manilius,38.33,9.07,14.45
Manners,15.04,19.99,4.57
Manuel,0.56,11.35,24.46
Manzinus,95.97,26.37,-67.51
Maraldi,39.61,34.79,19.36
Marci,24.46,192.42,22.22
Marconi,72.87,145.20,-9.48
Mare Anguis,145.98,67.57,22.42
Mare Ingenii,282.20,164.82,-33.24
Arago C,3.03,21.47,3.88
Mare Insularum,511.93,329.35,7.79
Mare Cognitum,350.00,337.68,-10.53
Mare Crisium,555.92,59.10,16.17
Petrov,55.44,88.17,-61.36
Pytheas,18.80,339.40,20.56
Markov,39.91,297.15,53.43
Moulton,54.70,97.56,-60.90
Mohorovi?i?,49.96,195.16,-18.73
Menelaus,27.13,15.92,16.25
Moigno,36.82,28.79,66.26
Murakami,44.51,219.02,-23.38
Moiseev,61.55,103.25,9.44
Moissan,22.44,137.44,4.77
Petrie,32.86,108.46,45.14
Mare Tranquillitatis,875.74,30.83,8.34
Mare Undarum,244.84,68.65,7.49
Petropavlovskiy,64.06,244.72,36.92
Mare Nubium,714.49,342.71,-20.58
Mare Orientale,294.15,265.32,-19.86
Marinus,56.55,76.57,-39.37
Mariotte,70.27,220.93,-28.45
Marius,40.08,309.16,11.89
Mary,0.52,27.39,18.92
McClure,23.96,50.23,-15.31
Mason,33.33,30.50,42.69
Maunder,53.79,266.12,-14.52
Montes Teneriffe,111.98,346.81,47.89
Maupertuis,45.48,332.71,49.69
McAuliffe,19.11,210.22,-33.24
Maurolycus,115.35,13.92,-41.77
Maury,16.57,39.69,37.10
Michael,3.46,0.21,25.04
Maxwell,109.24,98.52,29.90
McAdie,41.00,92.21,2.10
Mons Piton,22.50,359.07,40.71
McDonald,6.96,339.11,30.38
Menzel,3.43,36.94,3.40
Mons La Hire,21.70,334.49,27.66
McKellar,50.16,189.13,-15.71
Plinius,41.31,23.60,15.35
McLaughlin,75.29,267.17,47.00
Montes Spitzbergen,59.18,354.78,34.47
Montes Taurus,166.16,40.33,27.32
McMath,88.58,193.90,16.63
McNair,32.01,212.04,-35.93
McNally,47.03,232.34,22.49
Mechnikov,58.82,211.01,-10.47
Mee,134.10,324.81,-43.62
Osman,1.79,353.74,-10.97
Mees,51.55,263.81,13.57
Meggers,51.15,122.94,24.30
Meitner,87.27,113.10,-10.87
Melissa,17.20,121.77,8.12
Mendel,139.65,250.13,-48.82
Mendeleev,325.12,141.16,5.37
Mercator,46.32,333.88,-29.25
Mercurius,64.30,66.07,46.66
Merrill,56.99,242.55,74.83
Mersenius,84.46,310.66,-21.49
Meshcherskiy,65.94,125.52,12.10
Milichius,12.18,329.76,10.00
Messala,122.39,60.05,39.30
Messier,13.79,47.65,-1.90
Mons Hadley,26.39,4.11,26.69
Metius,83.81,43.37,-40.42
Mädler,27.58,29.75,-11.04
Meton,124.70,19.62,73.56
Mezentsev,84.51,230.36,71.77
Michelson,123.14,238.45,6.72
Mons Maraldi,15.89,35.50,20.33
Mons Moro,13.68,340.15,-11.83
Mons Penck,37.58,21.74,-10.00
Mons Pico,24.41,351.13,45.82
Milankovi?,94.21,171.35,76.52
Millikan,93.97,121.51,46.75
Mills,35.65,155.74,8.54
Milne,259.96,112.78,-31.00
Mineur,72.28,198.27,24.66
Mons Rümker,73.24,301.62,40.76
Minkowski,107.51,214.19,-56.12
Mitchell,32.14,20.17,49.76
Mitra,97.09,205.34,17.76
Abulfeda BA,13.98,16.79,-14.69
Mutus,76.33,29.92,-63.64
Monira,1.07,358.26,-12.54
Mons André,10.51,120.56,5.18
Mons Ardeshir,7.10,121.04,5.02
Mons Argaeus,61.47,29.00,19.33
Popov,71.39,99.37,16.93
Müller,23.39,2.03,-7.63
Porter,51.46,349.81,-56.14
Mons Delisle,32.42,324.21,29.42
Mons Dieter,20.41,120.29,4.99
Mons Esam,7.92,35.70,14.60
Mons Ganau,13.49,120.58,4.79
Möbius,48.95,101.13,15.63
Mösting,24.37,354.11,-0.70
Mons Hansteen,30.64,309.78,-12.19
Mons Herodotus,6.76,307.06,27.50
Mons Huygens,41.96,357.14,19.91
Nagaoka,50.54,154.04,19.50
Naonobu,32.95,57.93,-4.70
Posidonius,95.05,29.99,31.87
Montes Agricola,159.76,305.92,29.05
Montes Archimedes,146.53,354.75,25.39
Montgolfier,83.71,199.91,47.05
Moore,52.66,182.45,37.25
Moretus,114.44,354.05,-70.63
Planté,36.79,163.25,-10.21
Plummer,75.70,205.14,-24.62
Reiner,29.84,305.01,6.92
Plutarch,69.58,79.05,24.17
Poczobutt,212.35,260.76,57.26
Pogson,40.87,111.11,-42.37
Poinsot,65.11,213.78,78.90
Poisson,41.40,10.56,-30.33
Polybius,40.80,25.62,-22.46
Montes Riphaeus,190.11,332.39,-7.48
Morley,13.71,64.61,-2.82
Morozov,41.01,127.32,4.61
Morse,72.76,184.70,21.89
Richards,16.79,140.09,7.70
Palmieri,39.84,312.20,-28.64
Mouchez,82.78,333.17,78.37
Necho,36.86,123.24,-5.24
Moseley,88.88,269.79,20.95
Protagoras,21.05,7.34,56.01
Neison,51.02,25.02,68.20
Neper,144.31,84.58,8.76
Nernst,121.52,265.36,35.57
Wallace,25.71,351.25,20.25
Neujmin,97.03,125.17,-26.67
Puiseux,24.95,320.81,-27.81
Neumayer,84.38,70.92,-71.16
Heaviside F,13.44,172.61,-10.78
Newcomb,39.80,43.66,29.76
Nicholson,38.08,274.78,-26.21
Wallach,5.74,32.26,4.88
Newton,83.85,342.55,-76.52
Nicolai,40.54,25.87,-42.47
Nicollet,14.72,347.50,-21.94
Nielsen,9.64,308.24,31.80
Niepce,59.68,239.85,72.19
Nijland,35.45,134.16,33.19
Nikolaev,42.67,151.28,35.07
Nishina,62.12,189.20,-44.57
Nobel,50.86,258.61,14.73
Nobile,79.27,53.27,-85.27
Nobili,41.78,75.94,0.16
Nonius,70.61,3.78,-34.90
Polzunov,66.52,115.00,25.56
Pomortsev,25.50,66.91,0.73
Poncelet,67.57,305.42,75.90
Pons,39.69,21.55,-25.43
Pontanus,55.66,14.35,-28.42
Norman,9.87,329.64,-11.78
Nunn,18.49,91.14,4.61
Numerov,105.38,197.79,-70.51
Nu?l,60.57,167.45,32.19
Nöggerath,32.11,314.15,-48.82
Nöther (Noether),64.79,245.82,66.34
Oberth,49.52,154.83,62.49
Obruchev,72.22,162.42,-38.66
Oceanus Procellarum,2592.24,303.32,20.67
Oenopides,73.46,295.79,57.12
Oersted,42.27,47.25,43.08
Pupin,2.16,348.99,23.86
Ohm,61.75,246.22,18.32
Ramsden,25.10,328.12,-32.95
Oken,78.66,76.09,-43.75
Olbers,73.01,283.85,7.29
Olcott,79.93,117.78,20.57
Olivier,78.45,138.44,58.72
Omar Khayyam,68.63,257.78,58.20
Bailly N,10.96,296.31,-60.52
Onizuka,26.88,210.21,-36.37
Opelt,48.73,342.35,-16.31
Oppenheimer,201.16,193.96,-35.31
Pettit,36.66,273.24,-27.52
Oresme,82.05,169.22,-42.61
Rutherford,15.97,137.09,10.56
Orlov,72.92,184.91,-25.76
Maskelyne X,3.70,27.38,1.26
Orontius,121.01,356.04,-40.36
Osama,0.42,5.26,18.60
Petzval,93.47,249.16,-62.72
Phillips,104.21,75.67,-26.57
Philolaus,71.43,327.11,72.22
Sampson,1.82,343.46,29.57
Phocylides,115.18,302.68,-52.79
Picard,22.34,54.72,14.56
Osiris,0.95,27.64,18.64
Piazzi,102.57,291.99,-36.15
Piazzi Smyth,12.95,356.75,41.91
Ostwald,108.12,121.94,10.23
Stearns,38.94,162.60,34.68
Rankine,10.47,71.49,-3.86
Palisa,33.47,352.81,-9.46
O'Day,70.40,157.29,-30.42
Sulpicius Gallus,11.60,11.67,19.62
Palitzsch,41.86,64.38,-28.02
Susan,0.95,353.69,-10.99
Paneth,60.91,265.36,62.59
Pallas,49.50,358.34,5.47
Swasey,24.84,89.67,-5.45
Pontécoulant,91.40,66.06,-58.77
Palus Epidemiarum,300.38,332.45,-31.99
Apianus S,23.95,8.47,-25.80
Pannekoek,67.50,140.69,-4.19
Spurr,13.20,358.73,27.91
Papaleksi,92.03,163.94,10.14
Heron (Hero) H,17.88,120.70,0.24
Paracelsus,85.87,163.44,-22.92
Paraskevopoulos,98.87,209.65,50.09
Schuster P,16.25,144.48,1.67
Parenago,94.56,251.08,25.87
Parsons,41.12,188.84,37.24
Parkhurst,93.08,103.69,-33.28
Spörer,25.57,358.22,-4.30
Parrot,70.65,3.29,-14.57
Walter,1.26,326.18,28.04
Parry,47.28,344.22,-7.88
Zinner,4.55,301.13,26.64
Pascal,108.20,289.36,74.35
Paschen,127.35,219.47,-14.05
Pasteur,232.76,104.90,-11.57
Pawsey,59.97,145.29,44.23
Regnault,51.30,272.11,54.04
Pease,40.83,253.69,12.51
Reichenbach,64.84,47.95,-30.47
Patricia,10.08,0.49,24.90
Epimenides B,10.21,331.07,-41.61
Patsaev,55.25,133.59,-16.77
Peek,12.54,86.95,2.75
Pauli,95.27,137.35,-44.75
Peirce,18.85,53.35,18.26
Pavlov,143.05,142.40,-28.28
Gagarin M,17.58,149.17,-23.50
Peirescius,61.53,67.79,-46.40
Pentland,56.44,11.34,-64.56
Perel'man,48.86,106.01,-24.05
Avogadro D,19.47,170.22,63.84
Sarabhai,7.37,21.00,24.75
Perrine,87.41,232.05,42.11
Perepelkin,88.74,128.80,-9.98
Virtanen,39.64,176.73,15.64
Perkin,62.47,184.27,47.01
Verne,1.54,334.62,24.95
Petavius,184.06,60.77,-25.39
Pingré,88.43,286.04,-58.63
Pikel'ner,40.95,124.24,-48.36
Pilâtre,64.36,273.30,-60.17
Pirquet,62.14,139.92,-20.34
Pitatus,100.62,346.47,-29.88
Pizzetti,53.46,119.28,-35.06
Plana,42.97,28.22,42.25
Pitiscus,79.84,30.56,-50.61
Atlas A,22.21,49.55,45.34
Planck,319.45,135.33,-57.27
Plato,100.68,350.61,51.61
Priestley,54.88,108.47,-56.71
Alfraganus E,3.84,19.00,-4.61
Playfair,49.88,8.44,-23.56
Baillaud B,18.08,32.91,72.93
Poynting,127.54,226.62,17.50
And?l K,3.69,11.56,-5.83
Prager,53.89,130.78,-3.99
Schönfeld,24.57,261.99,44.76
Stewart,13.76,66.97,2.14
Prinz,46.12,315.85,25.48
Prandtl,87.53,141.54,-59.61
Proclus,26.90,46.89,16.08
Reimarus,47.61,60.42,-47.69
Promontorium Fresnel,20,4.74,28.62
Proctor,47.63,354.95,-46.42
Promontorium Agarum,62.46,65.73,13.87
Promontorium Archerusia,11.21,21.94,16.80
Promontorium Heraclides,50,325.90,40.59
Tralles,44.16,52.84,28.31
Triesnecker,24.96,3.59,4.18
Purkyn?,50.29,94.86,-1.53
Theophrastus,8.03,39.05,17.46
Steklov,36.60,254.94,-36.73
Pythagoras,144.55,297.02,63.68
Quetelet,54.76,224.69,42.65
Steno,32.29,161.77,32.60
Rabbi Levi,82.43,23.45,-34.78
Rayet,27.75,114.50,44.65
Raimond,68.36,200.37,14.77
Recht,19.96,123.99,9.76
Rothmann,41.66,27.69,-30.81
Raman,10.17,304.84,26.95
Ramsay,61.28,145.04,-40.02
And?l P,17.55,12.20,-11.65
Raspletin,45.51,151.75,-22.40
Ravi,1.62,358.03,-12.50
Rayleigh,113.76,89.44,29.11
Razumov,75.07,245.37,38.94
Reinhold,43.28,337.13,3.28
Repsold,108.65,281.58,51.30
Resnik,22.16,209.16,-34.15
Respighi,17.88,71.89,2.86
Rhaeticus,44.42,4.92,0.03
Thiel,35.67,225.43,40.17
Ritter,29.52,19.17,1.95
Rheita,70.81,47.17,-37.10
Riccioli,155.66,285.58,-2.90
Riccius,71.78,26.42,-37.02
Richardson,162.56,99.89,30.92
Riedel,49.14,219.95,-48.88
Riemann,117.85,87.17,39.38
Alhazen A,16.13,74.30,16.16
Ritchey,24.07,8.47,-11.12
Rittenhouse,27.50,107.06,-74.24
Rocco,4.35,314.99,28.90
Ritz,53.76,92.38,-15.37
Robert,0.55,27.44,19.02
Rosa,0.81,327.69,20.30
Roberts,89.37,185.75,70.66
Robertson,89.85,254.63,21.84
Robinson,24.09,313.97,59.06
Rocca,84.06,287.10,-12.88
Roche,152.67,136.54,-42.36
Romeo,7.15,122.68,7.52
Rosenberger,91.64,43.14,-55.49
Ross,24.48,21.73,11.66
Rosse,11.42,34.98,-17.94
Rosseland,67.65,130.68,-40.81
Rost,46.84,326.15,-56.42
Rowland,166.11,197.51,56.98
Rumford,60.82,190.19,-28.81
Ruth,3.08,314.93,28.70
Runge,38.98,86.80,-2.42
Russell,103.36,284.45,26.51
Rutherfurd,49.98,347.75,-61.14
Jansky H,11.83,91.40,7.70
Rydberg,48.03,263.57,-46.43
Abulfeda Q,3.50,12.22,-12.85
Rynin,77.88,256.26,46.78
Römer,43.70,36.40,25.42
Röntgen,128.42,268.57,32.87
Sabatier,9.60,79.00,13.18
Sabine,29.75,20.06,1.37
Sacrobosco,97.66,16.64,-23.75
Saenger,74.56,102.80,4.48
Agatharchides S,3.05,329.41,-17.75
Saha,103.34,103.04,-1.68
Samir,1.86,325.71,28.50
Sanford,55.09,220.79,32.37
Santbech,62.24,44.06,-20.98
Santos-Dumont,8.79,4.75,27.79
Sarton,71.33,238.85,49.12
Sasserides,81.73,350.55,-39.27
Saunder,44.38,8.71,-4.26
Saussure,54.55,356.11,-43.37
Scaliger,86.39,109.14,-27.25
Vitello,42.50,322.44,-30.41
Scheele,4.69,322.15,-9.44
Schaeberle,56.74,117.70,-26.32
Airy J,3.92,6.08,-19.05
Scheiner,110.06,332.19,-60.35
Schiaparelli,24.19,301.17,23.37
Schiller,179.36,320.21,-51.72
Schjellerup,62.82,158.24,69.03
Schlesinger,97.27,221.01,47.12
Schliemann,77.40,155.12,-1.99
Schlüter,87.55,276.61,-5.93
Schmidt,11.13,18.78,0.95
Schneller,56.87,196.27,41.33
Schröter,36.66,353.01,2.73
Sinas,11.67,31.60,8.85
Schrödinger,316.38,132.92,-74.73
Toscanelli,7.05,312.38,27.95
Schomberger,85.80,24.69,-76.63
Sinus Amoris,189.10,37.28,19.92
Schorr,52.09,89.79,-19.45
Agatharchides R,5.11,329.15,-18.36
Schubert,51.94,81.01,2.78
Sömmering,27.96,352.47,0.19
Swift,10.06,53.44,19.34
Schumacher,61.31,60.80,42.42
Schwabe,25.47,45.48,65.10
Schwarzschild,211.42,121.56,70.08
Schuster,100.08,146.42,4.44
Heron (Hero) Y,15.18,119.68,1.42
Scobee,41.53,210.35,-31.35
Secchi,22.13,43.55,2.40
Scoresby,54.93,14.13,77.72
Scott,107.82,48.51,-82.35
Lohrmann B,13.57,290.46,-0.75
Seares,99.50,147.23,73.73
Sechenov,63.79,216.91,-6.97
Seeliger,8.28,2.99,-2.21
Segers,17.27,127.51,46.99
Segner,67.84,311.32,-58.95
Shahinaz,15.99,122.42,7.58
Seidel,55.39,152.47,-32.65
Shatalov,24.04,140.47,24.26
Seleucus,45.01,293.33,21.09
Sherrington,18.80,118.00,-11.12
Seneca,47.57,79.80,26.71
Abulfeda H,4.22,9.55,-13.83
Seyfert,102.62,114.33,29.26
T. Mayer,33.14,330.83,15.53
Shaler,48.47,274.72,-32.89
Shapley,24.82,56.83,9.35
Sharonov,75.12,173.09,12.37
Sharp,37.60,319.78,45.75
Shayn,92.90,172.41,32.51
Sheepshanks,23.67,17.03,59.24
Shi Shen,46.51,104.13,75.78
Short,67.94,352.31,-74.53
Shirakatsi,48.13,128.55,-12.18
Shuleykin,14.66,267.32,-27.10
Shoemaker,51.81,45.91,-88.13
Shternberg (Sternberg),74.36,243.18,19.37
Shuckburgh,37.72,52.71,42.64
Siedentopf,62.70,135.08,22.04
Sikorsky,97.66,103.64,-65.88
Sierpinski,66.94,154.80,-26.93
Silberschlag,12.56,12.52,6.20
Simpelius,68.88,14.74,-72.61
Apianus A,13.11,6.51,-25.69
Sumner,52.86,108.76,37.61
Apollonius J,11.69,57.48,4.62
Sundman,41.03,268.30,10.75
Sinus Asperitatis,219.13,27.48,-5.41
Sinus Concordiae,159.02,42.47,10.97
Sinus Fidei,70.69,2.03,17.99
Fauth H,3.75,343.77,4.78
Smoluchowski,84.26,263.09,60.22
Snellius,85.98,55.70,-29.33
Sniadecki,41.13,191.15,-22.28
Soddy,40.79,121.76,0.44
Sinus Honoris,111.60,17.86,11.71
Sinus Iridum,249.29,328.33,45.01
Sirsalis,44.17,299.49,-12.49
Sisakyan,35.59,109.12,41.07
Timocharis,34.14,346.89,26.71
Tisserand,34.63,48.16,21.41
Sita,1.59,120.70,4.61
Tiselius,53.74,176.70,6.89
Smith,32.86,208.99,-31.78
Sklodowska,125.55,96.14,-18.03
Smithson,6.04,53.63,2.38
Somerville,17.08,64.96,-8.33
Slipher,74.64,160.26,49.27
Slocum,12.15,89.07,-3.15
Sommerfeld,150.88,198.45,64.82
Soraya,1.90,358.36,-12.86
Sosigenes,16.98,17.59,8.70
Spencer Jones,88.19,165.83,13.05
South,119.03,309.05,57.58
Spallanzani,30.86,24.72,-46.38
St. John,66.74,149.98,10.07
Talbot,12.36,85.29,-2.47
Stadius,68.48,346.22,10.47
Stark,47.71,134.59,-25.42
Stebbins,129.74,217.35,64.36
Stefan,112.18,251.22,46.33
Stein,30.72,179.10,6.99
Steinheil,63.27,46.65,-48.70
Gambart S,2.39,346.75,-0.05
Sternfeld,109.80,217.73,-19.75
Stevinus,71.53,54.13,-32.49
Stetson,63.12,241.80,-39.57
Abulfeda J,4.06,10.03,-15.48
Stiborius,43.75,31.99,-34.49
Stokes,53.85,271.89,52.36
Stoletov,42.43,204.49,44.82
Strabo,54.72,54.42,61.93
Stoney,47.51,203.62,-55.57
Amici T,38.06,185.92,-9.91
Turner,11.21,346.75,-1.39
Stratton,69.76,164.70,-5.60
Street,58.51,349.26,-46.57
Struve,164.33,283.34,23.41
Strömgren,62.17,227.63,-21.73
Stöfler,129.87,5.92,-41.24
Subbotin,71.66,135.70,-29.32
Sverdrup,32.82,206.61,-88.32
Störmer,68.62,146.64,57.13
Suess,8.38,312.28,4.35
Swann,42.18,112.52,51.95
Sylvester,59.27,278.78,82.64
Szilard,127.22,105.78,33.70
Taruntius,57.31,46.54,5.50
Tacchini,42.57,85.82,5.08
Vitruvius,30.94,31.27,17.66
Tacitus,39.80,18.94,-16.20
Tacquet,6.42,19.20,16.64
Von Zeipel,83.40,218.07,42.19
Flamsteed T,23.09,308.27,-3.13
Tamm,40.54,146.38,-4.32
Tannerus,28.06,21.92,-56.43
Teisserenc,62.30,223.72,31.96
Tempel,43.19,11.85,3.76
Ten Bruggencate,59.95,134.66,-9.57
Viviani,26.94,117.15,5.16
Tereshkova,31.33,143.84,28.21
Tesla,41.14,124.72,38.36
Thales,30.74,50.26,61.73
Theaetetus,24.59,6.05,37.01
Stratton Q,12.63,163.90,-6.20
Thebit,54.63,355.98,-22.01
Theiler,8.27,82.85,13.36
Theon Junior,17.61,15.79,-2.40
Theon Senior,18.01,15.41,-0.81
Theophilus,98.59,26.28,-11.45
Thiessen,66.39,190.49,74.85
Brenner E,14.26,40.50,-38.96
Thomson,117.25,166.04,-32.31
Boss F,30.49,89.08,54.17
Tikhov,83.96,172.29,61.66
Alfraganus F,8.64,20.84,-3.53
Warner,34.50,87.34,-3.98
Tiling,38.23,226.88,-52.85
Timiryazev,52.15,212.85,-5.08
Titius,68.41,100.66,-26.74
Titov,29.60,150.28,28.55
Tolansky,13.02,344.01,-9.51
Torricelli,30.86,28.40,-4.71
Trouvelot,8.50,5.79,49.37
Trumpler,76.16,167.13,29.32
Tsander (Zander),159.94,210.30,5.39
Tseraskiy (Ceraski),65.59,142.63,-48.65
Tsiolkovskiy,184.38,128.97,-20.37
Tyndall,20.94,117.64,-35.20
Tsinger (Zinger),44.21,175.71,56.53
Tsu Chung-Chi,28.53,145.15,17.16
Tycho,85.29,348.78,-43.29
Ukert,21.70,1.36,7.70
Ulugh Beigh,57.03,278.04,32.66
Urey,39.29,87.42,27.93
Valier,65.06,174.26,6.65
van Albada,22.92,64.35,9.36
Van Biesbroeck,9.08,314.41,28.76
Van den Bergh,43.41,200.79,30.90
van den Bos,25.18,145.95,-5.26
Van der Waals,113.36,119.98,-43.55
Barocius K,13.55,19.62,-45.22
Van Gent,44.37,160.27,15.42
Albategnius J,5.96,6.19,-11.14
Virchow,18.82,83.76,9.87
Van Maanen,46.42,128.17,36.03
van Rhijn,46.15,146.36,52.46
Van Vleck,33.48,78.20,-1.77
Van Wijk,31.06,119.05,-62.49
van't Hoff,107.3,227.31,61.74
Vasco da Gama,93.51,276.06,13.78
Vashakidze,44.99,93.01,43.65
Vega,73.50,63.26,-45.40
Vernadskiy,91.96,130.42,23.11
Vavilov,98.21,221.22,-0.87
Agrippa F,5.34,11.36,4.30
Vendelinus,141.21,61.54,-16.45
Ariadaeus D,3.91,17.02,4.87
Vening Meinesz,88.69,162.50,-0.10
Very,4.65,25.34,25.62
Ventris,100.73,157.96,-4.77
Vera,2.26,316.28,26.32
Vesalius,64.64,114.79,-3.23
Vestine,97.80,93.67,33.87
Vetchinkin,94.28,131.07,9.76
Vil'ev,45.82,144.39,-5.75
Vieta,87.16,303.47,-29.31
Archimedes Y,2.20,350.50,29.97
Vlacq,89.20,38.69,-53.38
Ball F,11.37,351.51,-36.94
Vogel,26.30,5.83,-15.10
Volkov,40.84,131.66,-13.61
Volta,117.14,275.23,53.90
Amici R,34.76,184.67,-11.50
Volterra,55.09,131.64,56.55
Brenner F,13.71,37.03,-40.71
von Behring,37.64,71.72,-7.74
von Békésy,96.24,126.73,51.92
Aitken G,6.04,173.99,-16.70
von Braun,61.82,281.91,41.04
Väisälä,8.12,312.10,25.90
Von der Pahlen,53.88,226.99,-24.83
Voskresenskiy,49.37,271.87,27.90
Aitken N,7.14,172.73,-17.63
Von Neumann,74.82,153.24,40.28
Walker,32.93,198.07,-25.81
Wan-Hoo (Van-Gu),53.27,221.09,-9.96
Alfraganus G,5.73,21.23,-2.67
Abenezra D,7.25,9.64,-21.75
Waterman,74.90,128.17,-25.70
Wargentin,84.68,299.56,-49.53
Alfraganus K,2.94,19.53,-5.25
Watts,15.55,46.30,8.84
Wichmann,9.77,321.87,-7.53
Watson,59.42,235.95,-62.59
Webb,21.41,59.99,-0.98
Watt,66.54,48.47,-49.59
Weierstrass,31.32,77.14,-1.25
Weber,43.94,236.20,50.06
Hume Z,14.21,90.41,-3.60
Wegener,95.78,246.18,45.20
Weigel,34.84,320.66,-58.38
Weinek,32.00,37.06,-27.56
Weiss,66.55,340.41,-31.76
Werner,70.59,3.29,-28.02
Wexler,52.44,90.71,-68.88
Almanon R,3.51,15.88,-18.17
Weyl,122.82,239.46,15.96
Whewell,13.04,13.73,4.16
White,42.33,200.96,-44.79
Widmannstätten,52.88,85.43,-6.09
Wiechert,40.82,164.70,-84.03
Wiener,113.38,146.51,40.90
Wildt,12.30,75.82,9.02
Wilhelm,100.82,339.05,-43.21
Albategnius P,4.01,4.48,-13.01
Wilkins,59.44,19.57,-29.58
Fourier G,10.48,308.15,-29.39
Williams,36.35,37.30,42.02
Wilsing,66.79,204.94,-20.97
Wilson,66.57,317.17,-69.32
Winkler,22.84,181.19,42.22
Winlock,63.92,254.07,35.39
Winthrop,17.25,315.54,-10.76
Wolf,25.74,343.37,-22.78
Wollaston,9.64,313.02,30.59
Woltjer,44.50,200.17,44.87
Wright,40.16,273.25,-31.54
Wood,84.15,238.17,43.66
Alfraganus H,11.99,19.16,-4.36
Wrottesley,58.38,56.61,-23.89
Wróblewski,21.78,152.79,-24.00
Wurzelbauer,86.76,343.94,-34.04
Wöhler,28.07,31.35,-38.25
Wyld,103.40,98.10,-1.41
Yerkes,34.93,51.69,14.60
Xenophanes,117.57,277.99,57.48
Xenophon,25.50,122.04,-22.79
Yablochkov,101.48,127.57,60.77
Yakovkin,35.92,281.07,-54.41
Yamamoto,77.45,161.87,58.15
Yangel',7.87,4.68,16.95
Young,71.44,50.97,-41.54
Zagut,78.91,21.88,-31.94
Zach,68.53,5.24,-60.91
Zanstra,39.49,124.68,2.92
Zelinskiy,53.95,166.86,-28.73
Fra Mauro J,3.27,341.35,-2.61
Zeno,66.77,72.98,45.14
And?l C,3.01,11.15,-9.00
Agatharchides F,5.89,328.14,-20.25
Zernike,50.67,168.40,18.33
Abenezra G,4.92,11.00,-20.53
Zhiritskiy,33.35,120.25,-24.83
Zhukovskiy,82.07,192.72,7.55
Zucchius,63.17,309.35,-61.38
Zsigmondy,66.88,254.70,59.51
Abenezra J,4.25,10.68,-19.91
Zupus,35.29,307.62,-17.17
Zähringer,11.18,40.21,5.50
Maunder A,15.48,269.37,-3.28
Zwicky,126.06,167.64,-16.17
Zöllner,47.69,18.89,-7.96
?afa?ík,31.42,176.70,10.43
Abbe H,25.12,177.58,-58.44
Abbe K,26.10,176.85,-59.81
Abbe M,28.61,175.23,-61.74
Abel A,27.83,85.79,-36.31
Abel B,41.54,82.59,-36.72
Abel C,36.84,81.40,-36.12
Abel D,27.89,86.45,-37.67
Abel E,13.99,84.43,-37.53
Abel J,18.75,79.87,-36.20
Abel K,9.94,77.45,-34.69
Abel L,54.12,82.39,-34.55
Abenezra A,22.18,10.44,-22.79
Abel M,91.00,83.52,-32.37
Alfraganus M,3.15,19.56,-5.65
Abenezra B,13.76,10.06,-20.81
Abenezra C,43.69,11.09,-21.36
Abenezra E,14.10,9.40,-21.46
Abenezra F,6.30,10.33,-21.58
Almanon B,23.59,15.26,-18.33
Almanon C,15.61,15.97,-16.16
Anaximander S,7.20,306.40,68.35
Anaximander T,7.01,307.72,67.29
Anaximander U,7.54,311.49,64.13
Anaximenes B,8.34,321.93,68.93
Abenezra H,4.72,12.71,-21.08
Abenezra P,39.26,9.84,-20.01
Abul Wáfa A,14.97,116.85,1.39
Abul Wáfa Q,31.03,115.88,0.14
Abulfeda A,13.25,10.75,-16.43
Abulfeda B,15.49,16.37,-14.50
Hermann S,3.90,304.39,0.94
Abulfeda C,16.42,10.82,-12.79
Abulfeda D,19.68,9.46,-13.24
Abulfeda E,5.55,10.13,-16.76
Abulfeda F,17.47,13.06,-16.18
Aliacensis B,15.81,3.20,-31.43
Aliacensis C,7.93,5.41,-32.70
Aliacensis D,9.66,6.81,-33.18
Agrippa G,13.23,6.15,3.91
Abulfeda G,6.30,8.93,-13.10
Abulfeda K,9.93,10.57,-14.92
Abulfeda L,4.94,10.67,-14.08
Abulfeda M,10.05,12.06,-16.23
Abulfeda N,13.07,12.20,-15.14
Abulfeda O,6.60,11.15,-15.46
Abulfeda P,4.58,11.54,-15.49
Abulfeda R,6.33,12.96,-12.78
Abulfeda S,5.27,13.29,-12.28
Abulfeda T,6.15,13.71,-14.85
Abulfeda U,5.81,13.79,-12.97
Abulfeda W,5.41,13.84,-12.55
Abulfeda X,5.80,13.99,-15.01
Abulfeda Y,4.62,14.05,-12.75
Hevelius B,13.49,291.02,1.35
Abulfeda Z,5.65,15.17,-14.72
Alphonsus Y,2.60,358.08,-14.70
Fontana C,13.45,302.80,-12.85
Alter K,21.63,253.81,16.21
Alter W,51.47,250.59,20.38
Amici M,107.91,187.97,-11.80
Amici N,37.62,187.46,-11.88
Adams C,11.12,65.53,-32.35
Adams D,46.26,71.45,-32.40
Adams M,25.23,69.33,-34.73
Adams P,25.43,70.90,-35.14
Agatharchides A,15.68,331.53,-23.27
Agatharchides B,6.97,328.29,-21.52
Agatharchides C,11.45,327.05,-22.05
Agatharchides E,15.27,326.81,-20.74
Agatharchides G,5.95,333.15,-20.17
Agatharchides H,15.97,326.05,-20.40
Agatharchides J,13.04,327.39,-21.62
Agatharchides K,13.34,332.46,-21.07
Agatharchides L,7.99,333.21,-21.12
Agatharchides N,21.64,330.28,-21.09
Agatharchides O,4.65,333.28,-19.23
Agatharchides P,65.98,331.22,-20.30
Agatharchides T,5.62,332.20,-18.32
Agrippa B,4.01,9.45,6.19
Pallas X,2.87,356.76,5.13
Agrippa D,21.36,6.71,3.76
Agrippa E,5.00,8.44,5.16
Aliacensis E,8.73,2.31,-30.42
Aliacensis F,4.81,3.84,-32.66
Maskelyne W,4.16,29.20,0.80
Aliacensis G,7.75,4.69,-33.38
Agrippa H,4.85,10.69,4.75
Agrippa S,31.71,8.89,5.27
Airy A,12.19,7.63,-17.04
Airy B,27.25,8.45,-17.66
Airy C,30.48,4.77,-19.24
Airy D,6.61,8.33,-18.13
Airy E,38.03,7.54,-20.75
Airy F,4.83,7.26,-18.20
Airy G,25.32,6.95,-18.69
Airy H,9.30,5.68,-18.73
Airy L,6.02,7.54,-20.47
Airy M,0.85,7.56,-19.14
Airy R,6.33,8.77,-19.60
Airy N,7.94,8.17,-17.85
Airy O,4.52,8.35,-16.75
Airy P,6.64,8.34,-15.88
Lipskiy X,21.36,178.82,0.42
Albategnius C,5.66,3.70,-10.33
Airy S,5.30,9.38,-17.27
Archimedes Z,2.06,358.59,26.87
Barnard A,15.38,85.06,-32.14
Airy T,36.91,9.38,-19.27
Airy V,4.42,9.13,-17.49
Lubbock K,6.04,38.35,-5.14
Airy X,3.87,10.12,-18.94
Aitken A,12.93,173.46,-13.86
Fleming N,23.13,108.87,12.70
Aitken Y,35.71,172.92,-11.92
Amici P,24.92,185.87,-12.35
Aitken C,65.60,175.57,-13.76
Aitken Z,32.05,173.20,-14.89
Amici Q,43.59,184.11,-12.33
Al-Biruni C,9.53,93.05,18.41
Al-Khwarizmi B,59.05,107.91,9.09
Aliacensis H,5.58,6.00,-31.81
Al-Khwarizmi H,49.71,109.77,5.84
Al-Khwarizmi L,35.50,107.89,3.76
Al-Khwarizmi J,44.67,108.14,6.18
Al-Khwarizmi K,22.36,108.15,4.49
Apianus R,13.10,8.89,-25.78
Apianus T,11.51,9.44,-27.73
Apianus U,16.82,8.97,-27.91
Albategnius A,6.78,3.03,-9.34
Albategnius B,18.98,4.02,-10.07
Albategnius D,8.35,7.14,-11.35
Albategnius E,12.67,6.38,-12.94
Albategnius G,13.78,1.88,-9.46
Albategnius H,11.76,5.16,-9.66
Albategnius K,10.31,1.99,-9.90
Amici U,88.73,184.52,-8.75
Amundsen C,24.22,85.21,-80.75
Anaxagoras A,20.08,352.97,72.25
Anaxagoras B,4.94,348.63,70.35
Anaximander A,15.23,309.59,68.04
Anaximander B,79.09,298.79,68.08
Anaximander D,96.62,309.31,65.77
Anaximander H,9.03,318.94,65.28
Anaximander R,8.04,304.78,66.31
Albategnius L,7.44,6.31,-12.08
Albategnius M,8.06,4.15,-8.91
Albategnius N,8.61,4.53,-9.89
Albategnius O,4.53,4.42,-13.62
Albategnius S,5.91,6.04,-13.34
Albategnius T,9.61,6.06,-12.66
Godin E,3.61,12.36,1.66
Alden B,15.10,113.10,-20.59
Alden V,20.88,110.46,-22.70
Alden C,56.81,111.74,-22.68
Be?vá? T,26.13,122.10,-2.11
Alder E,18.62,186.49,-47.97
Alekhin E,39.60,235.41,-66.96
Alexander A,3.98,14.93,40.78
Alexander B,3.89,15.14,40.27
Encke X,2.97,319.67,0.94
Alexander C,4.22,14.95,38.52
Alfraganus A,13.87,20.32,-3.04
Alfraganus C,10.30,18.09,-6.12
Alfraganus D,8.29,20.13,-4.04
Alhazen D,34.23,75.17,19.67
Aliacensis A,13.61,7.39,-29.70
Bergstrand J,28.26,178.02,-20.23
Aliacensis W,10.32,5.31,-31.90
Aliacensis X,3.66,6.78,-29.63
Aliacensis Y,4.69,7.33,-30.10
Aliacensis Z,3.83,4.49,-30.05
Joule K,15.90,218.15,25.64
Almanon A,9.74,15.32,-17.79
Almanon D,5.33,15.54,-18.59
Almanon E,5.37,13.62,-17.91
Almanon F,5.23,14.26,-15.92
Almanon G,4.46,14.60,-17.93
Almanon H,6.05,15.22,-19.02
Almanon K,6.45,15.43,-15.84
Almanon L,5.88,16.57,-18.99
Almanon P,19.43,17.00,-18.55
Almanon Q,4.63,16.99,-18.07
Alpes A,10.65,359.70,51.38
Alpes B,4.81,359.08,45.81
Alpetragius B,9.72,353.12,-15.13
Alpetragius C,2.10,353.83,-13.74
Alpetragius G,12.17,353.43,-18.17
Alpetragius H,4.42,353.89,-18.01
Alpetragius J,4.12,354.29,-18.04
Firmicus B,17.22,65.77,7.31
Alpetragius M,23.20,356.73,-16.45
Alpetragius N,11.26,356.12,-16.73
Fontana D,11.24,302.50,-17.00
Alpetragius U,15.59,354.89,-17.71
Alpetragius V,15.90,354.17,-18.18
Berzelius W,7.17,53.10,38.13
Alpetragius W,27.67,354.03,-17.95
Alpetragius X,31.77,354.26,-15.60
Alphonsus A,3.60,357.72,-14.86
Alphonsus C,3.37,355.12,-14.40
Alphonsus D,23.69,359.14,-15.05
Alphonsus G,3.52,356.60,-12.35
Alphonsus H,7.00,359.47,-15.62
Bullialdus K,12.01,334.31,-21.78
Alphonsus J,7.89,357.48,-15.13
Apianus H,6.56,8.64,-28.15
Apianus J,6.70,8.51,-26.32
Apianus K,6.44,9.31,-27.47
Apianus L,4.66,10.84,-29.12
Apianus M,6.98,10.28,-24.77
Apianus N,3.45,9.90,-28.89
Apianus P,41.58,9.12,-25.28
Alphonsus L,3.75,356.27,-12.02
Alphonsus R,3.00,358.07,-14.39
Alphonsus X,4.67,355.54,-14.98
Anaximenes E,10.00,328.54,66.57
Anaximenes G,51.16,319.49,73.75
Anaximenes H,42.71,314.29,74.63
And?l A,13.40,11.24,-10.81
And?l D,5.98,11.70,-10.78
And?l E,5.69,12.22,-12.01
And?l F,9.21,11.08,-8.33
And?l G,4.12,12.31,-10.94
Maurolycus G,6.95,11.51,-44.51
And?l H,5.24,11.31,-6.66
And?l J,5.52,11.41,-7.54
Hermann R,2.38,304.20,0.55
And?l M,26.46,11.11,-9.75
And?l N,8.49,11.33,-10.24
Maurolycus K,7.71,12.66,-39.99
And?l S,4.52,12.69,-11.39
And?l T,3.38,13.24,-11.24
And?l W,11.18,12.25,-12.36
Anders D,23.79,219.14,-40.26
Anders G,20.46,217.81,-41.81
Maurolycus S,6.42,17.01,-42.07
Anders X,21.44,215.75,-39.72
Anderson E,28.22,173.52,16.97
Anderson F,44.95,173.79,16.28
Anderson L,14.14,171.12,14.71
Angström A,5.68,318.84,30.91
Angström B,5.56,315.81,31.76
Ansgarius B,33.10,84.10,-11.98
Ansgarius C,15.59,74.82,-14.78
Oenopides X,5.14,296.84,57.63
Ansgarius M,7.55,78.79,-11.24
Ansgarius N,10.23,81.18,-11.91
Oken L,9.25,78.13,-42.78
Ansgarius P,10.34,75.65,-13.06
Anuchin B,25.59,103.57,-46.44
Anuchin L,16.04,101.91,-49.84
Anuchin N,30.68,100.03,-51.27
Anuchin Q,51.43,98.76,-50.81
Anuchin V,15.18,99.80,-47.81
Apianus B,10.20,8.98,-27.40
Apianus C,19.64,10.45,-28.13
Apianus D,33.66,10.66,-26.07
Apianus E,8.38,8.18,-28.85
Apianus F,5.38,6.32,-28.14
Apianus G,4.02,7.64,-28.12
Hyginus N,10.56,7.42,10.54
Apianus V,3.20,10.40,-25.19
Apianus W,9.68,7.46,-25.59
Fontana M,6.35,302.28,-17.21
Apianus X,3.10,7.01,-28.33
Apollonius A,24.55,56.85,4.82
Apollonius B,31.16,57.59,5.86
Apollonius E,16.54,61.85,4.34
Apollonius F,14.72,59.93,5.59
Apollonius H,19.03,59.50,3.43
Apollonius M,9.53,61.77,4.72
Apollonius N,10.78,63.76,4.74
Krafft H,14.78,282.08,16.91
Bessarion V,2.97,325.01,15.06
Apollonius S,16.22,62.58,1.26
Apollonius U,8.44,59.87,4.88
Apollonius V,14.97,58.22,4.39
Apollonius X,28.97,58.17,6.89
Apollonius Y,8.71,62.60,4.87
Bessel G,1.10,14.73,21.14
Appleton Q,22.66,155.31,34.17
Appleton D,39.13,160.62,37.77
Appleton M,25.02,158.26,33.71
Bettinus G,6.51,315.26,-61.60
Appleton R,40.91,156.25,36.12
Arago B,6.90,20.81,3.42
Arago D,3.94,22.39,6.91
Arago E,6.27,22.70,8.51
Becquerel E,30.44,131.44,40.95
Aratus B,6.68,5.43,24.17
Fra Mauro R,3.80,344.40,-2.26
Aratus C,3.55,9.45,24.07
Arnold J,6.17,33.81,65.89
Fra Mauro T,2.50,340.58,-2.06
Archimedes E,2.56,352.79,24.99
Arnold K,30.00,42.37,70.70
Arnold L,34.88,35.77,69.99
Fra Mauro Z,4.75,345.34,-3.81
Arnold M,6.76,43.59,68.29
Arnold N,18.80,41.60,70.15
Arrhenius J,16.98,271.54,-57.51
Aratus CA,2.08,11.17,24.55
Aratus D,4.05,8.60,24.37
Archimedes C,7.65,358.47,31.63
Archimedes D,4.95,357.30,32.20
Archimedes G,3.29,351.84,29.14
Archimedes H,3.78,352.97,23.89
Be?vá? Q,27.47,124.31,-3.14
Archimedes L,3.20,357.38,25.04
Archimedes M,3.27,356.79,26.12
Archimedes R,3.50,353.39,26.07
Archimedes N,3.50,356.10,24.15
Archimedes P,2.63,357.49,25.93
Archimedes Q,2.35,357.57,28.51
Archimedes S,2.76,357.27,29.55
Archimedes T,2.32,354.97,30.29
Archimedes U,2.73,358.04,32.83
Archimedes V,2.66,355.98,32.97
Archimedes W,3.18,353.75,23.80
Archimedes X,2.15,351.97,31.02
Archytas B,35.18,3.17,61.43
Archytas D,44.75,11.89,63.70
Hansteen L,3.11,306.85,-13.54
Archytas G,7.21,0.53,55.73
Archytas K,13.76,7.67,62.66
Archytas L,4.38,0.90,56.19
Archytas U,7.39,9.21,62.89
Archytas W,5.72,5.19,61.28
Argelander A,8.64,6.74,-16.53
Argelander B,5.59,5.10,-15.59
Argelander C,3.86,5.71,-16.27
Olbers S,16.23,283.31,6.83
Argelander D,10.68,4.44,-17.63
Argelander W,18.62,4.18,-16.74
Ariadaeus A,7.93,17.48,4.64
Ariadaeus B,7.80,15.05,4.89
Firmicus C,12.94,66.46,7.70
Ariadaeus E,21.96,17.62,5.32
Ariadaeus F,3.16,18.00,4.32
Bonpland J,2.63,339.59,-11.38
Aristarchus N,3.13,316.97,22.83
Aristarchus B,6.95,313.15,26.27
Lamé F,10.42,66.47,-13.85
Aristarchus D,4.65,317.11,23.73
Arnold F,10.41,35.18,67.55
Aristarchus S,3.79,313.71,19.29
Aristarchus F,17.59,313.42,21.66
Aristarchus H,4.42,314.25,22.61
Aristarchus T,3.33,313.50,19.66
Aristarchus U,3.45,311.35,19.72
?afa?ík H,15.80,178.54,9.52
Aristarchus Z,7.73,311.51,25.48
Aristillus A,4.43,4.53,33.64
Aristillus B,8.02,358.07,34.79
Aristoteles D,5.60,14.71,47.48
Regiomontanus M,4.39,357.85,-29.56
Aristoteles M,6.97,27.26,53.49
Aristoteles N,5.30,26.83,52.89
Armi?ski D,11.23,154.97,-16.04
Armi?ski K,20.04,154.64,-17.09
Arnold A,55.13,39.59,68.76
Arnold E,31.15,38.09,71.48
Arnold G,10.64,31.44,67.39
Arnold H,12.81,44.98,72.59
Artem'ev G,60.94,216.30,10.01
Artem'ev L,27.97,215.79,7.96
Arzachel A,8.68,358.49,-18.06
Arzachel B,7.71,357.01,-17.06
Arzachel C,5.66,356.29,-17.48
Arzachel D,7.45,357.85,-20.19
Arzachel H,4.07,357.95,-18.69
Arzachel K,3.50,358.37,-18.37
Arzachel L,4.40,0.13,-19.96
Arzachel M,3.01,359.12,-20.64
Arzachel N,2.75,357.73,-20.41
Arzachel T,2.96,358.70,-17.68
Avicenna G,24.50,267.94,39.18
Avicenna R,18.73,259.92,38.89
Azophi A,28.30,11.18,-24.43
Azophi B,18.32,10.58,-23.58
Azophi C,5.35,13.06,-21.80
Arzachel Y,3.91,355.73,-18.27
Asclepi A,13.43,23.01,-53.09
Asclepi B,17.25,23.82,-54.23
Babbage U,5.09,308.65,60.96
Babbage X,6.36,309.71,60.29
Balboa C,26.09,280.83,19.58
Babcock H,63.39,96.50,3.10
Atlas L,5.39,48.61,51.33
Balboa D,40.36,280.20,18.24
Asclepi C,9.57,23.54,-53.57
Asclepi D,17.86,24.08,-53.65
Asclepi E,6.38,24.15,-52.25
Asclepi G,4.93,24.79,-53.49
Asclepi H,18.21,25.19,-52.80
Aston K,14.46,272.11,35.03
Aston L,10.08,273.49,35.47
Atlas D,25.81,49.65,50.40
Atlas E,57.98,42.49,48.60
Atlas G,21.41,46.46,50.72
Atlas P,26.89,53.00,49.65
Atlas W,4.31,44.22,44.42
Atlas X,5.01,45.10,45.12
Autolycus A,4.16,2.17,30.92
Autolycus K,3.02,5.42,31.21
Baillaud E,14.28,35.95,74.33
Auwers A,7.57,18.30,13.77
Auzout C,16.86,65.26,8.78
Auzout E,17.35,60.65,9.56
Auzout L,7.50,61.29,8.34
Auzout R,7.67,60.04,8.70
Auzout U,8.14,61.04,9.39
Auzout V,7.82,61.30,9.34
Azophi D,8.48,13.38,-24.32
Azophi E,4.91,13.77,-23.48
Azophi F,5.95,13.83,-22.30
Azophi G,54.64,12.26,-23.86
Azophi H,20.70,11.83,-25.58
Azophi J,7.52,13.16,-21.28
Babbage A,32.27,304.35,59.14
Babbage B,6.54,300.36,57.05
Babbage C,13.71,302.48,59.19
Babbage D,70.95,298.83,58.64
Babbage E,7.18,298.39,58.46
Babcock K,9.97,95.14,1.18
Backlund E,13.38,105.57,-15.79
Backlund L,57.19,103.81,-18.36
Backlund N,18.04,103.06,-17.91
Backlund P,26.18,102.30,-19.00
Backlund R,22.96,101.86,-16.90
Backlund S,20.84,100.99,-16.92
Baco A,38.71,20.21,-52.98
Baco B,41.43,16.58,-49.63
Baco C,13.20,14.70,-50.91
Baco D,7.00,16.29,-51.72
Baco E,27.05,16.16,-53.02
Baco F,5.79,17.64,-50.36
Baco G,8.23,17.15,-54.46
Baco H,6.24,18.94,-52.06
Baco J,16.64,19.26,-54.83
Baco K,28.02,17.62,-54.07
Baco L,6.19,16.75,-49.60
Baco M,7.22,17.95,-49.26
Baco N,19.14,16.20,-50.89
Baco O,9.25,19.88,-52.12
Baco P,3.15,19.72,-51.03
Baco Q,17.31,18.61,-52.40
Baco R,17.42,20.91,-49.24
Baco S,16.70,18.45,-49.41
Baco T,4.87,19.77,-53.87
Baco U,5.80,19.30,-52.47
Baco W,9.04,21.11,-53.38
Baco Z,6.52,14.95,-53.11
Baillaud A,55.60,48.27,75.60
Baillaud C,11.36,50.91,74.90
Baillaud D,15.41,49.27,73.41
Baillaud F,18.81,53.02,75.61
Bailly A,42.68,300.42,-69.28
Bailly B,62.21,296.75,-68.73
Bailly M,20.19,292.49,-61.16
Bailly C,19.28,289.66,-65.79
Bailly D,26.62,287.62,-65.25
Bailly E,16.41,294.24,-62.44
Bailly F,16.83,290.41,-67.46
Bailly G,18.72,300.52,-65.62
Bailly H,12.92,297.41,-63.57
Bailly K,18.55,283.28,-62.73
Bailly L,21.26,288.86,-60.71
Bailly O,18.72,303.07,-69.58
Bailly P,14.38,299.33,-59.57
Bailly R,17.14,280.81,-64.66
Bailly T,19.42,286.17,-66.49
Bailly U,23.97,283.96,-71.24
Bailly V,32.15,278.55,-71.91
Bailly Y,14.25,294.39,-61.04
Bailly Z,13.49,294.14,-60.21
Baily A,16.25,31.38,48.70
Baily B,6.96,35.18,51.00
Baily K,3.41,30.52,51.50
Balboa A,46.66,277.97,17.41
Balboa B,54.24,277.42,20.49
Baldet J,17.20,209.75,-54.77
Ball A,29.22,350.60,-34.74
Ball B,9.72,350.80,-36.92
Ball C,31.15,351.21,-37.70
Ball D,22.45,349.58,-35.62
Ball E,4.38,351.82,-36.52
Ball G,26.73,349.78,-37.72
Balmer M,6.54,71.55,-20.76
Balmer N,8.46,69.81,-19.91
Balmer P,15.24,67.57,-20.47
Balmer Q,7.98,70.49,-18.69
Balmer R,5.72,69.13,-18.71
Balmer S,6.53,67.63,-18.57
Banachiewicz B,23.02,78.97,5.29
Banachiewicz C,21.27,75.33,7.01
Banachiewicz E,8.59,74.75,7.56
Barbier F,15.85,158.20,-23.82
Barbier D,21.55,160.17,-23.02
Barocius W,18.90,16.21,-45.67
Barbier G,16.60,159.85,-24.16
Barbier H,16.18,160.48,-25.11
Barbier J,42.20,160.22,-25.77
Barbier U,41.12,155.17,-22.77
Barbier V,30.37,154.57,-22.27
Barnard D,52.23,89.17,-31.34
Barocius B,36.57,18.28,-44.13
Barocius D,8.69,19.18,-46.06
Barocius E,23.57,22.14,-47.24
Barocius EC,7.67,22.49,-48.21
Barocius F,15.37,21.60,-45.92
Barocius G,27.60,21.02,-42.51
Barocius H,10.55,21.62,-46.70
Barocius J,27.15,21.41,-44.96
Barocius L,13.02,18.81,-42.49
Barocius M,15.85,19.48,-42.44
Barocius N,10.07,19.76,-43.19
Barocius O,5.35,21.93,-45.74
Barocius R,14.25,21.52,-43.91
Barocius S,8.26,21.82,-42.49
Barringer C,22.04,210.93,-26.81
Barringer Z,21.83,209.75,-24.76
Barrow A,27.37,3.85,70.56
Barrow B,16.81,10.52,70.15
Barrow C,27.98,11.12,73.02
Barrow E,17.94,3.33,69.00
Barrow F,18.59,1.81,69.15
Behaim B,22.93,76.51,-16.10
Behaim BA,14.30,76.06,-16.39
Barrow H,4.88,5.99,69.28
Barrow K,45.52,11.74,69.28
Barrow M,5.86,9.13,67.61
Bartels A,16.84,270.39,25.69
Bayer A,17.53,329.56,-51.35
Bayer B,23.09,331.80,-48.82
Bayer C,22.10,328.58,-49.76
Bayer D,19.59,330.16,-47.95
Bayer E,29.34,327.58,-51.76
Bayer F,19.11,328.32,-53.03
Bayer G,7.44,324.50,-51.73
Bayer H,31.54,327.32,-53.52
Bayer J,24.63,326.38,-52.26
Bayer K,15.78,325.93,-50.28
Bayer L,13.34,326.30,-47.51
Bayer M,9.51,328.80,-50.68
Bayer N,8.56,330.62,-48.33
Bayer P,4.24,330.32,-51.72
Bayer R,7.68,324.38,-52.41
Bayer T,7.98,329.68,-49.25
Bayer U,9.68,328.59,-48.40
Bayer V,9.39,328.24,-47.55
Bayer W,8.83,326.58,-48.03
Bayer X,8.35,326.19,-53.41
Bayer Y,27.58,324.13,-49.23
Bayer Z,6.19,326.38,-49.11
Beaumont A,14.32,27.77,-16.31
Beaumont B,15.14,26.80,-18.71
Beaumont C,6.01,27.93,-20.25
Beaumont D,10.49,26.16,-17.08
Bonpland L,2.84,338.78,-7.54
Beer B,2.46,350.95,25.67
Beaumont E,16.31,27.48,-18.88
Korolev G,11.88,206.54,-5.67
Beaumont F,8.90,26.59,-18.36
Beaumont G,7.73,27.14,-20.37
Beaumont H,3.66,28.53,-17.08
Beaumont J,4.85,26.50,-19.95
Beaumont K,4.95,30.06,-17.52
Beaumont L,4.24,30.01,-14.45
Beaumont M,10.21,28.62,-19.43
Beaumont N,4.89,27.77,-16.96
Beaumont P,16.24,29.59,-19.92
Beaumont R,4.09,30.71,-17.94
Be?vá? E,16.15,127.90,-1.98
Becquerel F,23.15,132.84,40.84
Becquerel W,25.35,127.06,42.05
Becquerel X,34.23,128.21,42.01
Be?vá? D,10.88,127.40,-1.80
Be?vá? J,47.16,126.80,-3.83
Be?vá? X,26.32,124.46,-1.00
Beer A,3.54,351.38,27.27
Daedalus M,13.84,179.49,-8.03
Beer E,2.98,352.15,27.83
Behaim C,12.18,77.48,-16.70
Behaim N,9.92,73.55,-16.11
Behaim S,26.68,81.44,-16.33
Behaim T,11.30,81.41,-15.89
Beijerinck C,19.84,153.83,-10.84
Macrobius F,11.43,48.52,22.46
Beijerinck D,13.67,153.19,-12.67
Beijerinck H,15.95,153.41,-14.02
Beijerinck J,39.94,153.85,-14.68
Beijerinck R,24.81,149.35,-14.50
Beijerinck S,25.90,147.29,-13.99
Beijerinck U,16.38,149.17,-12.31
Beijerinck V,52.88,150.25,-12.67
Bel'kovich B,12.33,85.71,58.88
Bellot B,7.12,47.71,-13.55
Bel'kovich A,57.25,87.41,58.65
Bel'kovich K,47.03,93.61,63.63
Bergstrand G,32.43,179.27,-19.86
Bell K,18.95,264.82,18.34
Bell E,15.90,264.05,22.05
Bell J,19.72,265.88,19.88
Bell L,22.08,264.05,19.71
Bell N,17.70,263.03,19.43
Bell Q,22.85,262.74,20.74
Bell T,52.19,260.96,21.90
Bell Y,23.00,263.15,25.40
Bellot A,8.46,47.62,-13.19
Belyaev Q,50.28,139.71,20.65
Bergstrand Q,57.11,175.19,-19.94
Bernoulli K,17.67,63.39,36.53
Berzelius K,5.97,47.03,35.56
Berkner A,21.79,255.09,27.62
Berkner B,33.85,255.76,29.43
Berkner Y,31.19,253.67,27.76
Berlage R,27.06,192.47,-64.09
Bernoulli A,20.23,60.87,36.41
Bernoulli B,23.96,65.51,36.83
Bernoulli C,17.99,67.18,35.38
Bernoulli D,11.91,66.50,35.79
Bernoulli E,26.75,62.85,35.31
Berosus A,11.31,68.08,33.14
Berosus F,22.15,66.52,33.99
Berosus K,8.16,70.88,32.18
Bouvard F,11.98,283.44,-42.44
Bouvard G,20.36,285.25,-42.02
Brenner L,5.46,36.61,-38.16
Brenner M,6.54,36.72,-38.76
Byrgius N,22.85,296.84,-22.39
Byrgius P,18.68,295.77,-22.53
Byrgius R,7.18,299.15,-26.49
Blazhko D,40.19,214.54,32.79
Blazhko F,33.34,213.61,31.19
Berzelius A,8.42,48.86,36.73
Berzelius B,25.50,43.09,32.31
Berzelius F,10.83,46.02,32.84
De Sitter G,9.70,42.00,78.77
Berzelius T,9.21,47.95,36.24
Biela A,26.12,53.38,-52.93
Gambart M,3.92,348.28,5.37
Biela D,15.96,56.41,-55.88
Biela B,44.55,50.02,-56.72
Biela C,26.88,53.49,-54.28
Biela E,8.55,56.57,-56.60
Biela F,9.40,54.85,-56.52
Birmingham G,5.19,349.76,64.58
Birmingham H,6.54,349.35,64.46
Bonpland N,2.30,338.52,-9.40
Bessarion H,4.12,318.51,15.26
Bolyai Q,26.40,123.04,-36.29
Boss D,15.58,87.58,44.36
Bessarion A,12.31,320.17,17.07
Bessarion B,11.67,318.28,16.83
Bessarion C,8.54,317.36,16.03
Bessarion D,9.15,318.26,19.77
Bessarion E,7.59,322.64,15.37
Bessarion G,3.62,319.63,14.90
Bonpland P,1.67,338.44,-10.92
Bessarion W,2.67,323.05,16.69
Bessel D,5.20,19.85,27.33
Bessel F,0.63,13.84,21.26
Bessel H,3.72,19.99,25.69
Bettinus A,25.67,310.97,-64.87
Bettinus B,25.16,308.68,-63.54
Bettinus C,22.55,321.90,-63.33
Bettinus D,10.46,313.38,-64.99
Bettinus E,7.89,317.61,-63.21
Bettinus F,6.75,315.98,-62.96
Bettinus H,7.76,316.18,-64.62
Bianchini D,7.05,324.30,47.55
Bianchini G,3.90,327.21,46.69
Bianchini H,6.17,327.14,48.08
Dewar F,14.03,167.61,-2.73
Bianchini M,4.23,329.32,48.37
Bianchini N,4.97,328.93,48.54
Gambart N,4.21,345.05,-0.54
Billy H,3.26,310.15,-15.65
Boguslawsky C,34.48,27.69,-70.99
Boguslawsky D,22.39,47.40,-72.86
Boguslawsky E,14.60,54.32,-74.31
Boguslawsky F,31.05,52.97,-75.41
Boguslawsky G,20.46,34.34,-71.48
Boguslawsky H,21.12,29.05,-72.81
Boguslawsky J,34.72,28.40,-72.08
Boguslawsky K,46.43,50.35,-73.46
Boguslawsky L,21.93,36.46,-70.67
Bianchini W,8.34,326.19,48.54
Biela G,10.08,54.08,-56.38
Biela H,7.96,54.39,-58.01
Biela J,13.95,52.89,-57.07
Boscovich D,3.47,12.18,8.97
Billy D,10.90,311.60,-14.85
Biela T,6.50,49.91,-53.92
Biela U,16.38,49.30,-53.65
Biela V,6.39,48.45,-53.73
Biela W,18.15,49.87,-55.31
Biela Y,15.70,58.00,-54.97
Biela Z,50.63,57.00,-53.89
Billy A,7.26,313.66,-14.33
Billy B,20.76,312.32,-12.20
Billy C,5.58,310.85,-16.07
Billy E,2.56,310.18,-14.97
Hipparchus K,10.87,2.15,-6.96
Bode B,9.76,356.91,8.73
Blazhko L,43.99,212.60,29.15
Bode A,12.14,358.82,8.99
Hipparchus Q,6.88,2.86,-8.50
Blazhko R,53.97,209.99,29.82
Birt C,1.80,351.63,-23.69
Bingham H,26.64,116.22,7.46
Hipparchus T,6.01,3.53,-7.14
Biot A,14.88,48.83,-22.21
Biot B,27.48,49.57,-20.43
Biot C,7.00,51.14,-22.10
Biot D,8.76,50.34,-24.34
Biot E,7.99,50.87,-24.76
Biot T,5.25,49.80,-21.44
Birkeland M,24.61,174.29,-32.28
Birkhoff K,58.22,215.18,57.39
Birkhoff L,35.15,214.65,56.33
Birkhoff Q,45.38,208.93,56.18
Birkhoff R,25.70,206.59,57.28
Birkhoff X,76.57,209.58,61.62
Birkhoff Y,25.42,213.02,59.49
Birkhoff Z,28.63,214.12,60.97
Birmingham B,7.32,348.75,63.52
Birmingham K,5.81,346.83,65.04
Birt A,7.16,351.76,-22.49
Bouvard B,24.73,280.14,-41.70
Bouvard C,14.63,282.51,-37.05
Birt B,5.05,349.73,-22.29
Birt D,2.63,350.12,-21.07
Birt F,2.46,350.85,-22.34
Birt G,1.84,351.71,-23.18
Birt H,1.82,350.85,-23.06
Birt J,1.75,350.49,-23.00
Birt K,1.76,350.30,-22.40
Birt L,1.80,350.63,-21.66
Blancanus D,23.19,343.35,-63.22
Bjerknes A,15.56,114.26,-36.18
Bjerknes B,17.26,114.47,-37.42
Bjerknes E,53.44,115.61,-38.26
Blackett N,26.10,243.78,-40.08
Blancanus A,6.48,337.84,-64.71
Blancanus C,44.16,331.77,-66.60
Blancanus E,31.26,338.17,-66.68
Blancanus F,8.82,332.50,-65.18
Boguslawsky M,8.09,34.84,-70.45
Boguslawsky N,27.45,32.87,-73.86
Bohnenberger A,31.10,40.17,-17.82
Bohnenberger C,14.11,41.09,-18.66
Bohnenberger D,13.40,42.63,-18.39
Bohnenberger E,11.85,42.06,-17.40
Bohnenberger F,9.33,39.67,-14.70
Bohnenberger G,11.77,40.12,-17.22
Bohnenberger J,4.44,40.38,-14.89
Bohnenberger N,5.72,41.88,-17.94
Bohnenberger P,10.74,41.47,-19.24
Bohnenberger W,10.56,41.09,-18.24
Bok C,23.54,189.74,-19.07
Bolyai D,32.15,128.44,-32.60
Galilaei T,1.57,298.53,16.15
Bolyai K,26.52,127.22,-36.65
Bolyai L,72.67,126.66,-36.48
Blanchinus D,6.89,4.17,-25.03
Blancanus H,6.96,336.41,-65.60
Reinhold G,3.16,340.16,4.83
Blancanus K,10.86,336.64,-60.52
Blancanus N,9.92,334.14,-63.26
Blancanus V,6.72,338.57,-64.33
Blancanus W,8.49,339.66,-60.96
Blanchinus B,7.22,1.54,-25.23
Blanchinus K,8.31,4.99,-24.80
Bouvard D,27.45,279.33,-42.76
Bouvard E,12.81,282.43,-41.86
Bode C,7.04,355.23,12.22
Bode D,3.38,356.67,7.27
Bode E,6.44,356.55,12.41
Bode G,4.20,356.43,6.33
Bode H,4.09,353.47,12.21
Bode K,5.59,357.71,9.30
Bode L,4.31,356.18,5.62
Bode N,6.29,356.11,10.97
Bonpland C,4.21,342.49,-10.22
Boguslawsky A,8.19,43.56,-74.40
Boguslawsky B,63.47,61.11,-73.97
Bonpland D,5.24,341.72,-10.16
Bonpland F,4.07,340.62,-7.34
Bonpland R,2.48,341.37,-10.70
Brenner H,7.39,38.67,-37.00
Brenner J,7.73,36.54,-37.70
Brenner K,6.76,37.11,-38.01
Bonpland G,3.69,341.19,-11.61
Bonpland H,3.78,340.03,-11.37
Boole A,55.88,279.43,63.42
Boole B,8.95,282.29,63.60
Boole C,17.48,277.52,65.36
Boole D,10.82,276.62,64.00
Boole E,15.94,275.33,62.84
Boole F,33.33,280.58,64.10
Boole G,40.49,269.32,65.26
Boole H,82.39,271.16,61.73
Boole R,13.55,281.74,64.39
Borda A,18.34,50.80,-26.86
Borda D,5.37,46.12,-24.56
Borda E,11.94,45.48,-24.00
Borda F,9.96,47.88,-26.18
Borda G,6.54,45.30,-26.31
Borda H,10.83,46.58,-26.74
Borda J,14.97,46.96,-27.01
Borda K,12.32,47.13,-27.54
Borda L,12.64,47.63,-27.06
Borda M,13.87,43.91,-25.43
Borda R,14.38,50.52,-27.43
Borman V,28.00,208.60,-37.62
Boscovich A,5.82,12.62,9.46
Boscovich B,4.33,9.22,9.78
Boscovich C,3.06,11.95,8.46
Boss B,14.49,78.12,52.02
Boscovich E,19.77,12.72,9.02
Boscovich F,3.99,11.37,10.44
Bose A,30.83,192.54,-49.66
Bose D,19.59,193.07,-53.12
Bose U,39.99,183.94,-53.12
Boss A,29.18,80.17,52.20
Boss C,22.77,76.66,52.26
Boss M,12.94,83.86,51.90
Drebbel J,12.99,307.57,-40.62
Boss K,20.43,81.14,49.53
Boss L,40.94,82.48,50.84
Boss N,15.41,85.80,52.03
Bouguer A,7.37,326.11,52.60
Bouguer B,7.99,326.93,53.36
Boussingault A,75.39,53.87,-69.96
Boussingault B,57.71,47.03,-65.69
Boussingault C,23.12,48.06,-65.14
Boussingault D,8.85,44.81,-63.58
Boussingault F,16.64,39.65,-68.96
Boussingault E,104.09,46.63,-67.07
Boussingault G,4.59,52.51,-71.44
Boussingault K,27.21,50.09,-68.82
Boussingault N,15.10,61.19,-71.36
Boussingault P,13.33,45.59,-67.28
Boussingault R,11.91,48.65,-64.40
Boussingault S,15.83,46.90,-64.14
Boussingault T,19.42,43.06,-63.01
Bouvard M,74.06,282.54,-40.56
Bouvard P,13.86,284.88,-38.97
Bouvard N,54.79,283.49,-38.42
Bradley H,4.96,359.65,22.89
Bowditch M,13.65,103.32,-26.67
Bouvard R,7.95,275.63,-35.52
Bouvard S,11.68,279.36,-35.58
Bowditch N,14.12,102.78,-26.62
Boyle A,24.35,178.13,-50.99
Boyle Z,47.30,177.66,-51.48
Bradley K,4.43,359.25,23.26
Bragg H,36.60,258.65,41.46
Bragg M,44.31,257.23,38.86
Bragg P,28.94,255.23,39.74
Brayley B,9.23,325.69,20.72
Brenner R,10.80,38.26,-40.78
Brenner S,5.77,36.18,-38.44
Brianchon B,31.89,270.82,72.15
Brianchon A,49.20,272.71,76.80
Bridgman E,27.55,141.83,44.08
Brianchon T,29.24,260.68,75.27
C. Mayer B,32.69,15.43,60.19
C. Mayer D,64.81,18.50,62.20
C. Mayer E,11.23,16.03,61.17
Brayley C,7.98,320.53,21.38
Brayley D,6.18,327.12,20.02
Brayley E,4.66,320.18,21.26
Pasteur Z,13.98,104.52,-6.97
Brayley F,4.54,325.90,21.08
Brayley G,4.34,323.55,24.17
Brayley K,3.23,318.28,21.21
Brayley L,3.47,317.34,20.91
Brisbane Y,16.10,70.16,-51.47
Brayley S,2.88,323.23,25.05
Bredikhin B,19.30,202.76,18.86
Breislak A,6.72,17.35,-47.01
Breislak B,7.36,18.21,-47.72
Brouwer P,27.36,233.37,-38.90
Brown A,15.75,342.55,-48.15
Brown B,11.66,343.83,-44.73
Brown C,12.33,342.99,-47.57
Brown D,19.51,343.74,-46.07
Bürg A,11.41,33.06,46.87
Breislak C,5.25,18.85,-48.96
Breislak D,4.05,18.68,-48.09
Breislak E,7.59,19.08,-47.86
Breislak F,6.25,19.41,-48.52
Breislak G,15.71,19.20,-47.00
Brenner A,31.68,39.94,-40.39
Brenner B,8.49,41.89,-37.45
Brenner C,8.01,41.98,-36.55
Brenner D,7.59,38.65,-36.28
Brenner N,5.12,36.58,-38.97
Brenner P,6.30,35.20,-38.81
Brenner Q,7.19,35.83,-39.26
Bridgman F,51.95,141.31,43.84
Briggs B,24.95,289.09,28.15
Briggs C,5.50,293.05,25.01
Brisbane H,43.70,65.11,-50.36
Brisbane X,20.07,67.97,-50.58
Brisbane E,57.34,71.41,-50.26
Buisson X,19.25,112.08,1.40
Brisbane Z,64.73,72.82,-52.89
Brouwer C,23.37,237.68,-33.55
Brouwer H,17.79,235.24,-36.09
Brown F,5.50,341.52,-46.91
Brown G,4.74,343.11,-45.51
Brown K,14.94,344.24,-46.74
Brunner L,30.60,91.56,-12.43
Brunner N,17.74,90.71,-11.38
Brunner P,20.48,90.30,-12.61
Buch A,18.47,17.58,-41.06
Buch B,6.26,16.95,-37.89
Buch C,27.38,17.24,-37.47
Buch D,6.90,16.47,-39.67
Buffon D,18.59,227.81,-40.23
Buffon H,25.14,231.20,-42.21
Buffon K,20.11,231.89,-46.28
Buffon V,41.11,222.52,-39.08
Buisson V,24.39,111.35,-0.76
Buisson Y,35.77,113.08,1.12
Buisson Z,115.34,113.29,0.12
Bullialdus A,25.47,338.42,-22.21
Bullialdus B,21.26,338.03,-23.46
Bullialdus E,3.91,335.96,-21.74
Bullialdus F,5.90,335.09,-22.51
Saha M,15.52,102.92,-2.19
Byrgius W,13.63,291.35,-26.11
Byrgius X,5.90,294.45,-25.74
C. Herschel C,7.04,327.38,37.22
C. Herschel E,5.03,325.31,34.21
C. Herschel U,3.29,328.55,36.20
C. Herschel V,3.46,326.51,36.46
Censorinus V,4.23,35.44,-0.64
Bullialdus L,3.58,335.53,-20.22
Bullialdus R,16.81,340.15,-20.22
Bullialdus Y,3.22,340.81,-18.57
Bunsen A,40.69,271.28,43.16
Bunsen C,19.01,270.17,44.20
Bunsen D,13.59,273.28,40.85
Burckhardt A,35.07,58.47,30.39
Burckhardt B,11.13,60.20,29.93
Burckhardt C,6.13,59.00,31.59
Burckhardt E,37.45,55.55,30.56
Burckhardt F,45.02,57.11,31.34
Burckhardt G,7.56,57.48,32.04
Bürg B,5.64,23.46,42.70
Burnham A,6.10,7.03,-14.80
Burnham B,3.40,7.22,-15.36
Burnham F,8.42,6.88,-14.34
Campbell Z,23.77,152.99,48.58
Burnham K,3.11,7.40,-13.68
Burnham L,3.79,7.56,-14.30
Carlini E,1.27,339.49,31.58
Burnham M,9.31,9.02,-14.12
Burnham T,3.42,9.46,-14.63
Carlini G,3.80,334.94,32.63
Büsching A,5.18,20.43,-38.36
Büsching B,17.91,22.75,-39.01
Büsching C,7.41,19.53,-37.30
Büsching D,30.54,21.80,-38.75
Büsching E,14.69,18.38,-36.71
Büsching F,5.73,20.94,-39.10
Büsching G,7.29,21.54,-39.57
Büsching H,4.70,21.06,-37.45
Büsching J,6.70,22.20,-39.54
Büsching K,5.07,18.65,-38.02
Buys-Ballot Q,59.56,172.89,19.74
Buys-Ballot Y,24.75,174.35,23.01
Buys-Ballot Z,59.20,174.72,22.53
Byrd C,34.25,28.33,84.35
Byrd D,24.47,33.41,85.52
Byrgius A,18.45,296.19,-24.54
Byrgius B,23.03,299.04,-23.87
Byrgius D,27.05,292.71,-24.07
Byrgius E,17.19,293.64,-23.49
Byrgius H,21.33,297.40,-23.75
Byrgius K,14.97,298.05,-23.00
Byrgius T,4.73,298.40,-25.06
Byrgius U,10.42,292.63,-25.83
Byrgius V,8.73,292.09,-26.07
C. Mayer F,6.64,19.61,62.08
C. Mayer H,42.70,14.74,64.20
Cabannes J,34.10,192.68,-62.25
Cabannes M,47.91,189.79,-64.32
Cabannes Q,49.63,185.12,-63.50
Cabeus A,40.88,319.75,-82.07
Cabeus B,59.61,305.41,-82.25
Cajori K,30.64,169.61,-49.28
Calippus B,7.20,10.07,36.07
Calippus D,3.99,11.31,36.38
Calippus E,4.82,11.88,38.92
Calippus F,6.74,10.00,40.58
Calippus G,3.78,11.55,41.30
Campanus A,11.14,331.32,-25.99
Campanus B,5.85,330.76,-29.31
Campanus G,8.21,328.63,-28.65
Campanus K,4.75,331.57,-26.70
Campanus X,3.12,332.58,-27.83
Campanus Y,4.38,331.78,-27.88
Dreyer W,30.73,95.79,11.76
Cauchy C,3.59,38.85,8.15
Campbell A,21.22,154.43,51.76
Campbell E,14.90,158.89,46.32
Campbell N,22.23,152.15,43.20
Campbell X,23.34,149.60,47.72
Cannon B,38.77,80.05,17.53
Cantor C,21.48,120.47,39.31
Cantor T,22.40,113.57,38.06
Capella A,11.76,37.17,-7.67
Capella B,8.38,36.87,-9.47
Capella C,11.16,36.39,-5.76
Capella D,7.95,37.53,-6.78
Capella E,14.33,37.69,-7.53
Capella F,13.57,35.41,-9.21
Capella G,11.02,36.92,-6.85
Capella H,8.93,37.37,-8.17
Capella J,8.92,36.05,-9.49
Capella M,11.80,36.94,-4.46
Capella R,7.28,35.21,-6.04
Capella T,5.71,34.17,-6.93
Capuanus A,12.98,334.29,-34.69
Capuanus B,10.79,332.27,-34.32
Capuanus C,10.31,334.68,-34.88
Capuanus D,20.98,333.67,-36.44
Capuanus E,28.37,332.83,-37.54
Capuanus F,6.97,333.28,-36.96
Capuanus H,4.40,332.73,-39.40
Capuanus K,8.14,333.43,-37.90
Capuanus L,11.45,333.59,-38.33
Capuanus M,6.37,334.32,-37.49
Cardanus B,13.18,286.03,11.44
Cardanus C,13.65,283.70,11.18
Cardanus E,6.41,289.19,12.80
Cardanus G,7.60,284.96,11.51
Cardanus K,7.89,282.95,14.12
Cardanus M,8.88,282.69,14.89
Cardanus R,20.98,286.49,12.25
Carlini A,6.61,333.36,35.35
Carlini C,3.54,337.10,35.09
Carlini D,8.95,343.97,32.98
Carlini H,3.60,335.53,32.43
Carlini K,3.46,336.27,31.08
Cauchy M,3.36,35.04,7.61
Carlini L,2.95,335.17,31.30
Carlini S,4.11,332.75,37.91
Censorinus K,4.49,28.85,-1.02
Carnot F,34.20,220.78,52.14
Carpenter T,9.37,301.30,70.28
Cassini K,3.46,4.08,45.18
Carver L,24.61,128.80,-45.78
Carpenter U,25.08,302.92,70.61
Carpenter V,5.76,305.31,71.90
Carpenter W,9.61,299.76,72.37
Carpenter Y,7.93,296.97,71.85
Carver M,80.42,127.43,-45.65
Casatus C,17.36,329.71,-72.24
Casatus D,37.65,316.69,-76.88
Casatus A,54.64,322.36,-72.68
Catharina G,15.93,24.90,-17.53
Casatus E,44.3,306.03,-77.25
Catharina H,5.44,25.36,-19.30
Casatus K,35.66,319.29,-74.80
Casatus H,35.66,338.59,-72.11
Casatus J,20.44,327.06,-74.34
Cassegrain B,26.96,114.64,-49.57
Cassegrain H,29.84,115.65,-52.83
Cassegrain K,16.41,113.88,-54.45
Cassini B,9.42,3.87,40.02
Cassini C,13.78,7.80,41.75
Cassini E,9.45,7.33,42.97
Cassini F,6.71,7.28,40.91
Cassini G,4.71,5.45,44.73
Cassini L,6.14,4.40,43.98
Chaplygin Q,12.68,147.90,-7.63
Chaplygin Y,27.52,149.64,-2.71
Chapman D,35.99,263.18,51.24
Cassini M,7.85,3.75,41.37
Cassini P,3.37,1.85,44.82
Cassini X,4.39,8.07,44.05
Cassini Y,3.55,2.15,41.98
Congreve G,17.49,196.12,-0.89
Cassini Z,4.68,2.37,43.48
Catalán A,21.17,270.71,-45.71
Catalán B,13.75,271.46,-45.61
Catalán U,19.31,269.34,-45.00
Catharina A,12.96,22.27,-20.21
Catharina B,21.70,24.29,-16.96
Catharina C,27.27,24.31,-20.38
Catharina D,8.36,21.40,-16.93
Catharina E,6.05,21.26,-17.16
Catharina F,6.31,23.05,-19.53
Catharina J,4.88,22.17,-19.45
Catharina K,7.19,23.88,-20.05
Catharina L,3.87,24.21,-20.96
Catharina M,5.39,20.73,-19.27
Catharina P,46.80,23.32,-17.28
Catharina S,15.76,23.37,-18.91
Galilaei V,2.72,299.59,17.10
Cauchy A,8.11,37.86,12.07
Cauchy B,4.57,35.83,9.69
Coriolis H,13.02,174.06,-0.59
Censorinus A,6.75,32.99,-0.42
Cauchy D,8.55,40.29,10.02
Cauchy E,3.41,38.56,8.83
Cauchy F,3.44,36.80,9.54
Cauchy U,4.89,42.28,8.79
Cauchy V,4.43,41.44,8.95
Cauchy W,3.91,41.66,10.56
Cavalerius A,14.14,290.31,4.49
Censorinus L,3.70,31.22,-2.76
Cavalerius B,39.51,288.87,5.97
Gambart D,4.78,342.28,3.35
Cavalerius C,8.19,290.68,5.84
Cavalerius D,51.77,291.53,8.65
Cavalerius E,9.55,289.94,7.67
Cavalerius F,7.17,294.60,8.11
Laplace D,10.56,334.41,47.27
Chang Heng C,19.90,113.93,20.37
Cavalerius K,9.89,290.61,10.29
Cavalerius L,9.90,289.74,10.45
Laplace F,5.87,340.13,45.54
Cavalerius M,11.79,288.37,10.35
Cavalerius U,6.75,292.44,10.08
Lassell B,2.96,352.31,-16.22
Chandler Q,15.45,169.29,41.00
Chandler U,14.69,166.80,45.42
Liebig A,11.08,312.24,-24.27
Chaplygin K,19.54,151.35,-7.67
Cavalerius W,7.84,292.60,6.93
Cavalerius X,4.33,293.29,9.21
Cavalerius Y,6.92,290.09,10.69
Censorinus N,36.31,36.59,-1.92
Macrobius C,10.66,45.03,20.84
Cavalerius Z,4.18,290.33,11.05
Cavendish A,10.66,307.17,-24.01
Cavendish B,10.28,304.80,-23.26
Cavendish E,23.52,305.72,-25.42
Cavendish F,17.75,305.83,-26.13
Cavendish L,5.67,306.23,-21.70
Cavendish M,5.85,306.08,-21.97
Cavendish N,4.31,305.51,-22.07
Cavendish P,4.44,308.31,-24.16
Cavendish S,5.01,307.48,-23.75
Cavendish T,4.18,304.78,-24.75
Celsius A,12.38,20.48,-32.97
Censorinus W,8.26,37.48,-1.02
Celsius B,5.74,19.62,-34.64
Celsius D,19.19,19.07,-34.75
Macrobius E,9.86,46.81,18.70
Celsius E,9.22,20.03,-32.91
Celsius H,5.09,20.10,-33.84
Censorinus B,6.88,31.44,-2.01
Censorinus C,27.70,34.15,-3.09
Censorinus D,10.29,35.86,-1.94
Censorinus E,11.25,34.83,-3.58
Gambart E,4.06,342.75,1.04
Chaffee F,36.12,206.88,-39.02
Censorinus H,8.83,33.66,-1.83
Censorinus J,5.26,31.33,-1.03
Censorinus S,15.54,36.18,-3.82
Censorinus T,3.72,31.16,-3.22
Censorinus U,3.44,34.44,-1.50
Censorinus X,16.90,37.19,-0.59
Censorinus Z,11.49,36.79,-3.67
Chacornac B,5.02,31.91,28.94
Cepheus A,12.47,46.50,41.03
Chacornac A,5.24,31.57,29.82
Chacornac C,4.89,32.57,30.78
Chacornac D,25.12,33.62,30.72
Chacornac E,20.05,33.80,29.45
Chacornac F,21.58,33.05,29.12
Chaffee S,19.87,202.50,-39.76
Chaffee W,24.61,203.87,-38.48
Chamberlin D,21.07,102.40,-57.05
Chamberlin H,27.28,99.97,-59.62
Chamberlin R,38.29,92.61,-59.93
Champollion A,26.94,177.22,41.06
Champollion F,20.91,177.83,37.19
Champollion K,22.25,176.30,36.34
Champollion Y,24.93,174.63,40.66
Chandler G,32.11,175.70,43.22
Chandler P,65.58,170.15,41.53
Chapman M,37.23,259.42,48.63
Chapman V,22.26,255.71,50.90
Chappell E,59.17,188.81,55.39
Chappell T,28.21,179.06,54.51
Charlier Z,45.91,228.24,39.11
Chaucer B,33.34,222.12,6.22
Chaucer P,11.59,218.08,1.37
Chauvenet C,45.87,138.17,-10.47
Chauvenet D,12.03,139.94,-10.74
Chauvenet E,26.54,140.81,-11.33
Chauvenet G,24.51,141.12,-12.64
Chauvenet J,75.69,139.51,-14.20
Chebyshev V,23.74,226.00,-33.53
Chauvenet L,9.59,137.77,-13.31
Chauvenet P,11.54,136.21,-14.49
Chauvenet Q,41.72,135.92,-13.38
Chauvenet S,37.54,134.41,-12.28
Chauvenet U,9.99,135.46,-11.10
Chebyshev C,26.86,232.49,-30.29
Chebyshev N,24.42,225.32,-37.74
Chebyshev U,35.68,222.90,-33.29
Chernyshev B,20.90,176.01,48.29
Chevallier B,12.05,51.95,45.15
Chevallier F,8.53,56.59,46.20
Chevallier K,5.56,50.86,43.51
Chevallier M,16.27,51.16,46.04
Chrétien A,12.05,163.14,-43.39
Clavius C,20.96,345.80,-57.71
Chrétien C,63.57,165.41,-44.76
Chrétien S,40.07,160.38,-46.65
Chrétien W,34.22,160.84,-44.55
Cichus A,19.82,338.48,-34.82
Cichus B,13.84,340.62,-33.19
Cichus C,11.50,338.13,-33.57
Clavius K,19.56,340.13,-60.45
Cichus F,7.82,337.48,-35.68
Cichus G,21.54,336.38,-35.50
Cichus H,7.25,337.50,-32.80
Cichus J,13.12,338.63,-32.04
Cleomedes A,12.56,55.06,28.87
Cichus K,6.20,339.95,-36.62
Cichus N,7.42,338.25,-30.58
Cleostratus P,7.13,286.80,59.57
Clairaut A,34.19,14.75,-49.05
Clairaut B,41.45,12.63,-48.35
Clairaut C,16.18,13.38,-48.16
Clairaut D,12.66,14.19,-47.42
Clairaut E,29.14,12.50,-46.48
Clairaut G,6.23,11.63,-47.26
Clairaut H,9.21,12.10,-49.11
Clairaut J,13.01,12.75,-45.80
Clairaut K,12.42,13.91,-49.78
Clairaut M,5.83,13.75,-46.25
Clairaut P,8.26,11.71,-49.09
Clairaut R,13.55,15.83,-47.99
Clairaut S,22.03,16.32,-47.51
Clark F,31.96,123.06,-38.64
Clausius A,7.57,316.08,-36.31
Clausius B,23.91,319.76,-36.06
Clausius BA,18.52,319.91,-35.74
Clausius C,14.76,320.95,-35.46
Clausius D,17.26,315.29,-38.21
Clausius E,6.73,314.27,-36.57
Clausius F,25.76,321.87,-36.54
Clausius G,7.03,318.99,-37.08
Clausius H,7.00,320.36,-37.86
Clausius J,4.39,317.27,-37.21
Clavius D,27.85,347.57,-58.81
Clavius E,15.74,347.25,-51.51
Clavius F,7.30,337.92,-55.43
Clavius G,16.75,345.99,-52.02
Clavius H,32.55,344.14,-51.84
Clavius J,12.38,341.83,-58.16
Clavius L,23.38,338.65,-58.77
Clavius M,47.88,348.36,-54.76
Clavius N,12.78,343.49,-57.56
Clavius O,4.40,343.33,-56.98
Clavius P,13.16,352.50,-56.92
Clavius R,7.65,344.57,-53.24
Clavius T,8.11,344.78,-60.68
Clavius W,5.01,343.75,-56.00
Clavius X,6.52,342.18,-60.24
Clavius Y,7.11,343.78,-58.01
Cleomedes B,10.68,55.89,27.15
Cleomedes C,13.85,54.82,25.66
Cleomedes D,28.94,61.86,29.20
Cleomedes E,21.09,54.58,28.61
Cleomedes F,11.82,56.99,22.56
Cleomedes G,19.34,57.16,24.00
Cleomedes H,6.50,57.63,22.42
Cleomedes J,10.00,56.95,26.87
Cleomedes L,7.07,54.40,23.78
Cleomedes M,6.29,51.66,24.19
Cleomedes N,5.99,52.51,24.71
Cleomedes P,9.49,56.19,24.69
Cleomedes Q,4.46,56.69,24.80
Cleomedes R,14.74,60.16,29.45
Cleomedes S,7.57,58.94,29.46
Cleomedes T,12.36,57.61,25.73
Cleostratus A,35.61,282.35,62.67
Cleostratus E,20.96,280.26,60.92
Cleostratus F,49.21,279.42,61.52
Cleostratus H,12.67,278.03,61.27
Cleostratus J,20.19,276.34,61.39
Cleostratus K,16.94,278.92,61.98
Cleostratus L,9.84,280.69,62.27
Cleostratus M,9.08,284.79,61.49
Cleostratus N,5.26,286.22,60.62
Cleostratus R,6.43,286.72,58.89
Cockcroft N,60.65,196.32,28.78
Colombo A,40.77,44.46,-14.17
Colombo B,13.47,45.16,-16.40
Colombo E,14.92,42.38,-15.81
Colombo G,8.94,43.44,-14.01
Colombo H,14.14,44.12,-17.44
Colombo J,5.95,43.61,-14.30
Colombo K,4.99,46.43,-15.82
Colombo M,15.64,47.79,-14.63
Colombo P,5.89,47.90,-15.11
Conon Y,3.71,1.82,22.34
Condorcet M,10.54,73.12,9.06
Cook A,5.83,49.20,-17.75
Cook B,8.98,51.64,-17.30
Cook C,4.95,51.28,-18.18
Cook D,4.74,53.38,-20.17
Condorcet Y,14.18,68.92,12.85
Cyrillus A,13.69,23.12,-13.76
Cyrillus C,11.75,21.50,-12.36
Congreve U,54.72,189.24,0.40
Conon A,6.03,4.38,19.68
Colombo T,9.95,45.46,-18.96
Compton E,17.75,113.24,55.37
Compton R,34.36,91.05,52.51
Compton W,15.38,96.59,58.58
Comrie K,70.59,247.42,21.92
Comrie T,42.45,244.34,23.04
Comrie V,28.49,243.83,24.58
Comstock A,20.34,238.33,24.68
Comstock P,24.39,236.67,19.94
Condorcet A,15.38,67.29,11.51
Condorcet D,19.80,68.35,9.83
Coriolis Y,30.86,170.95,3.57
Condorcet F,39.65,73.08,8.26
Condorcet G,10.31,67.96,10.65
Condorcet H,21.03,65.08,12.44
Condorcet J,16.25,65.20,13.06
Condorcet L,12.56,73.66,10.15
Condorcet N,5.01,72.60,8.98
Condorcet P,48.40,70.29,8.76
Condorcet Q,35.81,73.36,11.22
Condorcet R,19.89,74.75,11.75
Condorcet S,10.19,75.64,10.66
Condorcet T,14.66,65.84,11.80
Condorcet TA,14.60,65.72,12.16
Condorcet U,10.97,75.39,10.07
Condorcet W,35.82,67.00,13.94
Condorcet X,8.88,69.94,10.12
Congreve H,37.95,194.25,-1.30
Congreve L,29.91,193.16,-3.72
Congreve N,29.93,191.42,-3.65
Congreve Q,55.34,190.43,-1.74
Conon W,4.01,3.07,18.71
Cook E,6.14,55.10,-18.42
Cook F,7.05,55.37,-17.59
Cook G,9.89,48.68,-18.94
Cooper G,19.46,178.76,52.42
Coriolis G,17.73,174.54,-0.03
Cooper K,32.23,178.08,50.86
Copernicus A,3.21,341.09,9.52
Copernicus B,7.54,337.61,7.50
Copernicus C,5.73,344.56,7.11
Gambart F,4.52,343.04,0.09
Copernicus D,5.09,335.20,12.19
Copernicus E,4.11,337.29,6.40
Copernicus F,3.33,337.75,5.88
Copernicus G,4.13,338.48,5.92
Copernicus H,4.39,341.71,6.89
Copernicus J,5.70,336.06,10.12
Copernicus L,3.89,342.91,13.48
Copernicus N,6.32,336.68,6.91
D'Arrest B,4.99,13.61,0.95
Copernicus P,4.31,343.94,10.10
Copernicus R,3.56,343.15,8.05
Coriolis S,17.54,169.65,0.10
Cori G,20.54,212.13,-50.98
Coriolis C,17.26,173.20,1.88
Coulomb N,30.64,243.98,50.32
Coriolis L,30.51,172.59,-2.03
Coriolis M,28.36,171.52,-1.49
